PERMIT_ID,CALENDAR_YEAR,FISCAL_YEAR,PERMIT_LOCATION_NAME,PERMIT_NUMBER,PERMIT_CONDITION,PERMIT_DESCRIPTION,PERMIT_IN_DATE,PERMIT_EXPIRE_DATE,PERMIT_FINAL_DATE,PERMIT_PARENT_ID,PERMIT_STATUS,PERMIT_SUB_TYPE,PERMIT_WORK_TYPE,INSTALLATION_DATE,REMOVAL_DATE,BANNER_DIRECTION,BANNER_LOCATION,ENGINEERING_REQ,ILLUMINATION_TYPE,SIGN_IN_ETJ,SIGN_VARIANCE_REQ,SUBMITTED_501C3,TOTAL_SIGN_FACE_AREA,CITY,STATE,ZIP_CODE,COUNCIL_DISTRICT,LATITUDE,LONGITUDE,APPLICANT_NAME,APPLICANT_ORGANIZATION,geocoded_column,Single Member Council Districts,"Boundaries: Zip Code Tabulation Areas, 2017",BOUNDARIES_single_member_districts,Neighborhood Planning Areas,Community Registry,Zipcodes
12447141,FY 2020,FY 2020,1216 1/2 S. Lamar Blvd.,2020-052137 SB,,"OTS Banner. ""Cap10k"". Linker #7. 03/29/21-04/12/21.",03/30/2020 08:31:03 AM,03/30/2021 08:31:04 AM,,12447123,In Review,Banner Permit,Banner,,,North,1216 1/2 S. Lamar Blvd.,,,,,,,,,,,,,Christopher Thibert,Austin American-Statesman,,,,,,,
12125726,FY 2019,FY 2019,,2019-014258 SB,,"12 LP Banners. ""Austin 311 Promotion"". 4/29/19-5/13/19.@ RED_RIVER (A, B)",01/25/2019 04:32:20 PM,01/25/2020 04:32:20 PM,,,In Review,Banner Permit,Lamp Post,,05/13/2019 12:00:00 AM,,,,,,,,,,,,,,,Paul Bestgen,Austin 311,,,,,,,
12447123,FY 2020,FY 2020,200 1/2 S. Congress Ave.,2020-052127 SB,,"OTS Banner. ""Cap10k"". Linker #61. 03/29/21-04/12/21.",03/30/2020 08:24:36 AM,03/30/2021 08:24:36 AM,,,In Review,Banner Permit,Banner,,,North,200 1/2 S. Congress Ave.,,,,,,,,,,,,,Christopher Thibert,Austin American-Statesman,,,,,,,
12329575,FY 2019,FY 2019,6905 N FM 620 ROAD,2019-193913 SB,Sign area may not exceed Scenic Roadway-10% of facade area of first 15 ft. of bldg. height,RBFCU6905 FM 620 N,09/30/2019 02:28:22 PM,10/12/2020 12:00:00 AM,,,Active,Sign Permit,Freestanding,,,,,true,Internal,false,false,,60,AUSTIN,TX,78730,6,30.40151944,-97.85373902,Ms. Ann Lewis,LEWIS SIGN,,,,,,,
12447132,FY 2020,FY 2020,4199 1/2 N. Lamar Blvd.,2020-052132 SB,,"OTS Banner. ""Cap10k"". Linker #8. 03/29/21-04/12/21.",03/30/2020 08:28:27 AM,03/30/2021 08:28:27 AM,,12447123,In Review,Banner Permit,Banner,,,South,4199 1/2 N. Lamar Blvd.,,,,,,,,,,,,,Christopher Thibert,Austin American-Statesman,,,,,,,
11958015,FY 2018,FY 2018,801 1/2 E. 51st St.,2018-097090 SB,,"OTS Banner. ""Purple Martin Parties"". Linker 53. 7/9/18-7/23/18.",06/05/2018 08:57:23 AM,12/02/2018 08:57:24 AM,,,Expired,Banner Permit,Banner,,,East,801 1/2 E. 51st St.,,,,,,,,,,,,,Nicole Netherton,Travis Audubon Society,,,,,,,
12425072,FY 2020,FY 2020,11410 CENTURY OAKS TERRACE Bunit 144,2020-033038 SB,Sign area may not exceed Commercial-20% of facade area of first 15 ft. of bldg. height,Install channel letters. Blue Sushi Sake Grill. Northwest elevation,02/25/2020 09:59:20 AM,08/23/2020 09:59:21 AM,,,Active,Sign Permit,Wall,,,,,true,Internal,false,false,,32,AUSTIN,TX,78758,7,30.4016842,-97.72673724,Mr Kevin Hull,Texas Custom Signs,,,,,,,
12370266,FY 2019,FY 2020,7400 N LAMAR BOULEVARD,2019-228789 SB,Sign area may not exceed UNO-20% of facade area of first 15 ft. of bldg. height,THE MAGNOLIAINTERNALLY ILLUMINATED WALL SIGN,11/26/2019 11:28:32 AM,03/24/2020 11:28:13 AM,03/24/2020 11:28:13 AM,,Final,Sign Permit,Wall,,,,,true,Internal,false,false,,72,AUSTIN,TX,78752,7,30.34181142,-97.71727908,Ms. Ann Lewis,LEWIS SIGN,,,,,,,
12118521,FY 2019,FY 2019,6000FM 969 ROAD,2019-008086 SB,Sign area may not exceed Commercial-20% of facade area of first 15 ft. of bldg. height,install new 7-11 wall sign,01/14/2019 10:58:07 AM,09/20/2020 12:00:00 AM,,,Active,Sign Permit,Wall,,,,,false,Internal,false,false,,117,AUSTIN,TX,78724,1,30.28612296,-97.66388453,Chris Wilke,Baker's Signs & Manufacturing Inc,,,,,,,
12434280,FY 2020,FY 2020,10601 N FM 620 ROAD Unit 103,2020-040867 SB,Sign area may not exceed Scenic Roadway-10% of facade area of first 15 ft. of bldg. height,new wall sign for Donut4U sign B,03/10/2020 01:54:07 PM,09/06/2020 01:54:07 PM,,,Active,Sign Permit,Wall,,,,,true,Internal,false,false,,30,AUSTIN,TX,78726,6,30.44421335,-97.83214285,Claudia Salguero,,,,,,,,
12441574,FY 2020,FY 2020,6210 E US 290 HWY  WB,2020-047296 SB,Sign area may not exceed Expressway Corridor-20% of facade area of first 15 ft. of bldg. height,Install monument sign. Austin Regional Clinic. Administration Building. North & South elevation,03/19/2020 02:28:17 PM,09/15/2020 02:28:18 PM,,,Final,Sign Permit,Freestanding,,,,,true,Internal,false,false,,33,AUSTIN,TX,78752,4,30.32294041,-97.70193396,Mr Kevin Hull,Texas Custom Signs,,,,,,,
12443312,FY 2020,FY 2020,12101 ARCHELETA BOULEVARD,2020-048810 SB,Sign may not be located in or overhang any easements or property line.,"This sign is a monument sign supported by 2, 4""x 4"" posts set into the ground. The sign will be approximately 8.5'W x 7'T.",03/23/2020 04:28:10 PM,09/19/2020 04:28:11 PM,,,Application Incomplete,Sign Permit,Freestanding,,,,,true,,,,,26,AUSTIN,TX,78739,8,30.17074213,-97.88942074,Chuck Malesky,,,,,,,,
12408886,FY 2020,FY 2020,11150 RESEARCH BLVD  SB Unit 202,2020-018811 SB,Sign area may not exceed Expressway Corridor-20% of facade area of first 15 ft. of bldg. height,INSTALL WALL SIGN KUMONSUITE 202B,02/07/2020 06:31:42 AM,03/25/2020 02:00:02 PM,03/25/2020 02:00:02 PM,,Final,Sign Permit,Wall,,,,,true,Internal,false,false,,38.5,AUSTIN,TX,78759,10,30.40705734,-97.74697457,Hussain Contractor,Ezzi Signs,,,,,,,
12415079,FY 2020,FY 2020,6001 S CONGRESS AVENUE Bldg 1,2020-024332 SB,,SOCIETY6001 S. CONGRESSROOF SIGN,02/12/2020 03:52:41 PM,08/10/2020 03:52:41 PM,,,Application Incomplete,Sign Permit,Roof,,,,,true,Internal,false,false,,90,AUSTIN,TX,78745,2,30.20083079,-97.77566286,Ms. Ann Lewis,LEWIS SIGN,,,,,,,
12400024,FY 2020,FY 2020,7710 N FM 620 ROAD Bldg  8,2020-011179 SB,Sign area may not exceed Scenic Roadway-10% of facade area of first 15 ft. of bldg. height,Installation of new wall signage for Chipotle (south elevation),01/24/2020 12:00:00 AM,03/26/2020 12:50:46 PM,03/26/2020 12:50:46 PM,,Final,Sign Permit,Wall,,,,,true,Internal,false,false,,29.07,AUSTIN,TX,78726,6,30.41080092,-97.85164198,Manuel Rangel,Aether Illumination LLC,,,,,,,
12434606,FY 2020,FY 2020,12520 N IH 35  SB,2020-041094 SB,Sign area may not exceed Expressway Corridor-20% of facade area of first 15 ft. of bldg. height,Sign C / Remove and Replace Internally Illuminated Wall Channel Letters reading Springhill Suites by Marriott,03/10/2020 05:19:11 PM,09/06/2020 05:19:11 PM,,,Active,Sign Permit,Wall,,,,,true,Internal,false,false,,46,AUSTIN,TX,78753,7,30.40629331,-97.6763119,Roberta Baker,Bakers Signs,,,,,,,
12399782,FY 2020,FY 2020,7710 N FM 620 ROAD Bldg  8,2020-010956 SB,Sign area may not exceed Scenic Roadway-10% of facade area of first 15 ft. of bldg. height,Installation of new wall signage for Chipotle (north elevation),01/23/2020 03:34:16 PM,03/26/2020 12:50:32 PM,03/26/2020 12:50:32 PM,,Final,Sign Permit,Wall,,,,,true,Internal,false,false,,29.07,AUSTIN,TX,78726,6,30.41080092,-97.85164198,Manuel Rangel,Aether Illumination LLC,,,,,,,
12409017,FY 2020,FY 2020,11603 JOLLYVILLE ROAD,2020-018901 SB,Sign area may not exceed Neighborhood Commercial-10% of facade area of first 15 ft. of bldg. height,new freestanding sign D1,02/07/2020 08:37:42 AM,08/05/2020 08:37:42 AM,,,Active,Sign Permit,Freestanding,,,,,true,Internal,false,false,,23,AUSTIN,TX,78759,10,30.4172634,-97.74925186,Claudia Salguero,,,,,,,,
12349333,FY 2019,FY 2020,4000 S IH 35  SB,2019-211375 SB,Sign area may not exceed Expressway Corridor-20% of facade area of first 15 ft. of bldg. height,Install channel letters and LED to existing pylon. AISD,10/23/2019 09:52:04 AM,09/23/2020 12:00:00 AM,,,Active,Sign Permit,Freestanding,,,,,true,Internal,false,false,,234,AUSTIN,TX,78704,3,30.21836923,-97.75122386,Mr Kevin Hull,Texas Custom Signs,,,,,,,
12395318,FY 2020,FY 2020,6317 FM 2244 ROAD,2020-007017 SB,Sign area may not exceed Scenic Roadway-10% of facade area of first 15 ft. of bldg. height,Wall Sign - New Channel Letters,01/15/2020 05:54:45 PM,07/13/2020 05:54:46 PM,,,Active,Sign Permit,Wall,,,,,true,Internal,false,false,,49.75,AUSTIN,TX,78746,8,30.29636954,-97.83218999,Mr. Luis Cantu,LEC Industries LLC,,,,,,,
12134206,FY 2019,FY 2019,401 GUADALUPE STREET,2019-021459 SB,Sign area may not exceed Downtown-20% of facade area of first 15 ft. of bldg. height,Republic Square - ZASPA wall sign,02/08/2019 01:03:06 PM,03/20/2020 09:21:50 AM,03/20/2020 09:21:50 AM,,Final,Sign Permit,Wall,,,,,false,Internal,false,false,,24,AUSTIN,TX,78701,9,30.26748681,-97.74664296,Shana Gardner,Ion Art,,,,,,,
12340532,FY 2019,FY 2020,901 E 5TH STREET,2019-203991 SB,Sign area may not exceed UNO-20% of facade area of first 15 ft. of bldg. height,"Install acrylic faced internal illuminated ""[target logo]"" wall sign, sign G",10/09/2019 11:28:22 AM,03/19/2020 10:34:25 AM,03/19/2020 10:34:25 AM,,Final,Sign Permit,Wall,,,,,true,Internal,false,false,,70.88,AUSTIN,TX,78702,3,30.26427553,-97.73390779,Jennifer Garcia,,,,,,,,
12176795,FY 2019,FY 2019,1311 AIRPORT COMMERCE DRIVE,2019-057512 SB,Sign area may not exceed Scenic Roadway-10% of facade area of first 15 ft. of bldg. height,"Install internally illuminated channel letters reading ""Extended Stay America"" on the North elevation",04/15/2019 10:30:17 AM,09/16/2020 12:00:00 AM,,,Active,Sign Permit,Wall,,,,,false,Internal,false,false,,182.9,AUSTIN,TX,78741,3,30.22316385,-97.68562007,Jennifer Garcia,,,,,,,,
12416839,FY 2020,FY 2020,2610 LAKE AUSTIN BOULEVARD,2020-025734 SB,Sign area may not exceed Scenic Roadway-10% of facade area of first 15 ft. of bldg. height,new wall sign for CVS sign 8,02/16/2020 06:36:20 PM,08/14/2020 06:36:19 PM,,,Active,Sign Permit,Wall,,,,,true,Internal,false,false,,15,AUSTIN,TX,78703,10,30.28156254,-97.77505823,Claudia Salguero,,,,,,,,
12340537,FY 2019,FY 2020,901 E 5TH STREET,2019-203996 SB,Sign area may not exceed UNO-20% of facade area of first 15 ft. of bldg. height,"Install acrylic faced internal illuminated ""[target logo]"" wall sign on panel, sign H",10/09/2019 11:31:27 AM,03/19/2020 10:33:35 AM,03/19/2020 10:33:35 AM,,Final,Sign Permit,Wall,,,,,true,Internal,false,false,,50.27,AUSTIN,TX,78702,3,30.26427553,-97.73390779,Jennifer Garcia,,,,,,,,
12272956,FY 2019,FY 2019,110 W SLAUGHTER LANE,2019-145642 SB,Sign area may not exceed Scenic Roadway-10% of facade area of first 15 ft. of bldg. height,19-1496 SOUTH VALERO CANOPY FACING SLAUGHTER 110 W SLAUGHTER LN,07/05/2019 11:49:10 AM,10/12/2020 12:00:00 AM,07/18/2019 11:12:18 AM,,Active,Sign Permit,Awning,,,,,true,Internal,false,false,,318,AUSTIN,TX,78748,2,30.16743327,-97.78792265,Stormi Wolf,Comet Signs LLC,,,,,,,
12435829,FY 2020,FY 2020,10301 BURNET ROAD,2020-042149 SB,Sign area may not exceed ##% of facade area of first 15 ft. of bldg. height,Denyse - Windsor Burnet (blade sign)install (1) blade sign,03/12/2020 09:28:34 AM,09/08/2020 09:28:35 AM,,,Application Incomplete,Sign Permit,Wall,,,,,true,Internal,false,false,,33.5,AUSTIN,TX,78758,7,30.38657989,-97.72244512,Arelly Guzman,EXECUTIVE SIGNS,,,,,,,
12400079,FY 2020,FY 2020,1011 S CONGRESS AVENUE Bunit 100,2020-011230 SB,Sign area may not exceed Commercial-20% of facade area of first 15 ft. of bldg. height,"Install channel letters. Reformation, Sign A",01/24/2020 09:50:50 AM,03/20/2020 10:40:02 AM,03/20/2020 10:40:02 AM,,Final,Sign Permit,Wall,,,,,true,Internal,false,false,,15,AUSTIN,TX,78704,9,30.25349259,-97.74794176,Mr Kevin Hull,Texas Custom Signs,,,,,,,
12309090,FY 2019,FY 2019,8023 W PARMER LANE,2019-176304 SB,Sign area may not exceed Scenic Roadway-10% of facade area of first 15 ft. of bldg. height,INSTALL WALL SIGN EAST ELEVATION FRONT,08/28/2019 11:58:38 AM,02/10/2020 10:33:52 AM,02/10/2020 10:33:52 AM,,Final,Sign Permit,Wall,,,,,true,Internal,true,false,,138,AUSTIN,TX,78729,,30.46132831,-97.75577231,Hussain Contractor,Ezzi Signs,,,,,,,
12411145,FY 2020,FY 2020,4604 TERI ROAD,2020-020702 SB,Sign area may not exceed Neighborhood Commercial-10% of facade area of first 15 ft. of bldg. height,installation of new wall signage for Dinero Express #4 etc on the façade facing TERI RD.,02/11/2020 12:00:00 AM,08/09/2020 11:49:12 AM,,,Active,Sign Permit,Wall,,,,,false,Internal,false,false,,101.99,AUSTIN,TX,78744,2,30.19680557,-97.74319601,,Sign Expo Austin,,,,,,,
12410385,FY 2020,FY 2020,1009 S CONGRESS AVENUE,2020-020054 SB,Sign area may not exceed Commercial-20% of facade area of first 15 ft. of bldg. height,"Install D/F internally illuminated blade sign reading ""Lululemon"" on storefront elevation",02/10/2020 12:23:34 PM,08/08/2020 12:23:34 PM,,,Active,Sign Permit,Wall,,,,,true,Internal,false,false,,42.5,AUSTIN,TX,78704,9,30.25378215,-97.74784372,Jennifer Garcia,,,,,,,,
12444887,FY 2020,FY 2020,2023 DENTON DRIVE,2020-050191 SB,Sign area may not exceed Commercial-20% of facade area of first 15 ft. of bldg. height,"Install perforated backer panel with non-illuminated channel letters & FCO acrylic, mount with aluminum angle clip.",03/25/2020 01:45:21 PM,09/21/2020 01:45:22 PM,,,Final,Sign Permit,Wall,,,,,true,Internal,false,false,,15.79,AUSTIN,TX,78758,4,30.38506968,-97.71327541,Felissa Cortez,,,,,,,,
12351320,FY 2019,FY 2020,4477 S LAMAR BOULEVARD NB,2019-213009 SB,Sign area may not exceed Commercial-20% of facade area of first 15 ft. of bldg. height,"WESTGATE CINEMAS - Removal of existing sign letters ""CENTRAL"" and replace sign letters ""CINEMAS""",10/25/2019 12:54:04 PM,02/13/2020 12:00:52 PM,02/13/2020 12:00:52 PM,,Final,Sign Permit,Wall,,,,,true,Internal,false,false,,45,AUSTIN,TX,78745,5,30.23102471,-97.79730599,Harlan Smith,Signtek Austin,,,,,,,
12272939,FY 2019,FY 2019,110 W SLAUGHTER LANE,2019-145633 SB,Sign area may not exceed Scenic Roadway-10% of facade area of first 15 ft. of bldg. height,19-1496 SOUTH VALERO GAS PRICER PYLON 110 W SLAUGHTER LN,07/05/2019 11:35:48 AM,10/12/2020 12:00:00 AM,07/18/2019 11:11:12 AM,,Active,Sign Permit,Freestanding,,,,,true,Internal,false,false,,181.7,AUSTIN,TX,78748,2,30.16743327,-97.78792265,Stormi Wolf,Comet Signs LLC,,,,,,,
12309101,FY 2019,FY 2019,8023 W PARMER LANE,2019-176315 SB,Sign area may not exceed Scenic Roadway-10% of facade area of first 15 ft. of bldg. height,INATLL WALL SIGN WEST SIDE SOUTH,08/28/2019 12:06:09 PM,02/10/2020 10:33:07 AM,02/10/2020 10:33:07 AM,,Final,Sign Permit,Wall,,,,,true,Internal,true,false,,138,AUSTIN,TX,78729,,30.46132831,-97.75577231,Hussain Contractor,Ezzi Signs,,,,,,,
12393925,FY 2020,FY 2020,9900 W PARMER LANE,2020-005875 SB,Sign area may not exceed Scenic Roadway-10% of facade area of first 15 ft. of bldg. height,20-0067 SOUTH SLAPBOX PIZZICHERIA WALL SIGN 9900 WEST PARMER LN,01/14/2020 11:58:45 AM,07/12/2020 11:58:45 AM,,,Active,Sign Permit,Wall,,,,,true,Internal,false,false,,55,AUSTIN,TX,78717,6,30.48703759,-97.77021696,Stormi Wolf,Comet Signs LLC,,,,,,,
12415023,FY 2020,FY 2020,,2020-024306 SB,,"18 LP Banners. ""ATD Get There ATX"". 4/21/2020-5/5/2020@ S_LAMAR (ALL - double)",02/12/2020 03:28:50 PM,02/11/2021 03:28:50 PM,,,In Review,Banner Permit,Lamp Post,,05/05/2020 12:00:00 AM,,,,,,,,,,,,,,,Julie Anderson,Austin Transportation Department,,,,,,,
12317728,FY 2019,FY 2019,11200 LAKELINE MALL DRIVE,2019-183732 SB,Sign area may not exceed Commercial-20% of facade area of first 15 ft. of bldg. height,19-2691 Spirit Halloween sign A1 (40ft x 4ft)on south elevation,09/12/2019 07:06:03 AM,03/10/2020 07:06:03 AM,,,Final,Sign Permit,Wall,,,,,true,Internal,false,false,,160,AUSTIN,TX,78613,6,30.47051556,-97.80651785,Stormi Wolf,Comet Signs LLC,,,,,,,
12449243,FY 2020,FY 2020,6401 FM 969 ROAD,2020-053918 SB,Sign area may not exceed ##% of facade area of first 15 ft. of bldg. height,Illuminated building sign for Car Wash,04/02/2020 09:05:58 AM,09/29/2020 09:05:59 AM,,,Pending,Sign Permit,Wall,,,,,true,Internal,false,false,,50,AUSTIN,TX,78725,1,30.28439729,-97.66062572,Scott Vaughan,Sign Manufacturer,,,,,,,
12446457,FY 2020,FY 2020,7718 WOOD HOLLOW DRIVE,2020-051529 SB,Sign area may not exceed Commercial-20% of facade area of first 15 ft. of bldg. height,Austin OaksTwo (2) sets of non lit channel letters on existing blade wall,03/27/2020 02:48:06 PM,09/23/2020 02:48:06 PM,,,Final,Sign Permit,Wall,,,,,true,Internal,false,false,,104,AUSTIN,TX,78731,10,30.3612146,-97.7476422,Arelly Guzman,EXECUTIVE SIGNS,,,,,,,
12399021,FY 2020,FY 2020,12120-1/2 MANCHACA ROAD,2020-010320 SB,0,Build and install building sign letters for Menchaca School,01/22/2020 09:12:02 PM,07/20/2020 09:12:02 PM,,,Final,Sign Permit,Wall,,,,,true,Internal,true,false,,36,AUSTIN,TX,78748,,30.14196317,-97.83311039,Jeff Papst,,,,,,,,
12317721,FY 2019,FY 2019,11200 LAKELINE MALL DRIVE,2019-183725 SB,Sign area may not exceed Commercial-20% of facade area of first 15 ft. of bldg. height,19-2691 Spirit Halloween sign A4 (30ftx7ft)on North elevation,09/12/2019 06:56:00 AM,03/10/2020 06:56:00 AM,,,Final,Sign Permit,Wall,,,,,true,Internal,false,false,,270,AUSTIN,TX,78613,6,30.47051556,-97.80651785,Stormi Wolf,Comet Signs LLC,,,,,,,
12293313,FY 2019,FY 2019,1901 SAN ANTONIO STREET Unit FL10,2019-162909 SB,Sign area may not exceed UNO-20% of facade area of first 15 ft. of bldg. height,"INSTALL LED LIT CHANNEL LETTERS (SIGN #2) - ""THE OTIS"" TO EAST ELEV. 10TH FL.",08/05/2019 01:55:53 PM,02/24/2020 10:50:06 AM,02/24/2020 10:50:06 AM,,Final,Sign Permit,Wall,,,,,true,Internal,false,false,,134,AUSTIN,TX,78705,9,30.2822335,-97.74291266,Mary Gorman,,,,,,,,
12429745,FY 2020,FY 2020,5720 BURNET ROAD,2020-036963 SB,Sign area may not exceed Commercial-20% of facade area of first 15 ft. of bldg. height,Install channel letters. Allandale Village. East elevation,03/03/2020 11:19:06 AM,08/30/2020 11:19:07 AM,,,Active,Sign Permit,Wall,,,,,true,Internal,false,false,,80,AUSTIN,TX,78756,7,30.33301662,-97.74048874,Mr Kevin Hull,Texas Custom Signs,,,,,,,
12392283,FY 2020,FY 2020,7710 N FM 620 ROAD Bldg 7,2020-004492 SB,Sign may not be located in or overhang any easements or property line.,Install (2) tenant panels to existing monument sign,01/10/2020 03:02:02 PM,07/08/2020 03:02:02 PM,,,In Review,Sign Permit,Freestanding,,,,,true,Internal,false,false,,11.33,AUSTIN,TX,78726,6,30.41080092,-97.85164198,Karena Martinez,Extreme Signs,,,,,,,
12396939,FY 2020,FY 2020,1011 E 5TH STREET,2020-008442 SB,Sign area may not exceed UNO-20% of facade area of first 15 ft. of bldg. height,Sign E.5 - North Elevation - ATM Surround with back lit sign header.  Power to sign installed by GC,01/20/2020 09:53:02 AM,07/18/2020 09:53:02 AM,,,Final,Sign Permit,Wall,,,,,true,Internal,false,false,,4.4,AUSTIN,TX,78702,3,30.26385119,-97.73252564,Steve Kirkpatrick,IES Commercial Inc,,,,,,,
12389722,FY 2020,FY 2020,9401 S IH 35  NB,2020-002325 SB,Sign area may not exceed Commercial-20% of facade area of first 15 ft. of bldg. height,install channel letters. Floor & Decor. Sign E,01/07/2020 02:34:45 PM,07/05/2020 02:34:45 PM,,,Active,Sign Permit,Wall,,,,,true,Internal,false,false,,57,AUSTIN,TX,78744,5,30.16266228,-97.78700759,Mr Kevin Hull,Texas Custom Signs,,,,,,,
12325987,FY 2019,FY 2019,720 BRAZOS STREET,2019-190785 SB,Sign area may not exceed Downtown-20% of facade area of first 15 ft. of bldg. height,CLARK HILL STRASBURGER on the 7th street side of the building 720 BRAZOSWALL SIGN,09/24/2019 03:34:52 PM,01/31/2020 09:51:15 AM,01/31/2020 09:51:15 AM,,Final,Sign Permit,Wall,,,,,false,Internal,false,false,,58.33,AUSTIN,TX,78701,9,30.26923879,-97.74116236,Ms. Ann Lewis,LEWIS SIGN,,,,,,,
12449014,FY 2020,FY 2020,8023 BURNET ROAD,2020-053727 SB,Sign area may not exceed Commercial-20% of facade area of first 15 ft. of bldg. height,"Install new single face address cabinet, internal illuminated ""8023"" w/ 1.5"" steel tube supports to existing poles, Kitchen United Mix",04/01/2020 04:50:07 PM,09/28/2020 04:50:07 PM,,,Active,Sign Permit,Freestanding,,,,,true,Internal,false,false,,3.9,AUSTIN,TX,78757,7,30.35911059,-97.72983267,Jennifer Garcia,,,,,,,,
12445019,FY 2020,FY 2020,9001 CAMERON ROAD,2020-050291 SB,Sign area may not exceed Scenic Roadway-10% of facade area of first 15 ft. of bldg. height,"Channel letter mounted to raceway and installed on the awning. Sign dimension 315""w x 24""h.",03/25/2020 03:06:10 PM,09/21/2020 03:06:11 PM,,,Active,Sign Permit,Awning,,,,,true,Internal,false,false,,61,AUSTIN,TX,78754,1,30.34642169,-97.67688574,Jeff Papst,,,,,,,,
12376415,FY 2019,FY 2020,333 E 2ND STREET,2019-233884 SB,Sign area may not exceed Downtown-20% of facade area of first 15 ft. of bldg. height,19-3131 WEST MICHELADAS PROJECTING SIGN 333 E 2ND ST,12/09/2019 03:13:02 PM,03/23/2020 06:39:01 AM,03/23/2020 06:39:01 AM,,Final,Sign Permit,Projecting,,,,,true,Internal,false,false,,32.25,AUSTIN,TX,78701,9,30.26328179,-97.74097495,Stormi Wolf,Comet Signs LLC,,,,,,,
12383004,FY 2019,FY 2020,4477 S LAMAR BOULEVARD NB Unit 580,2019-239350 SB,Sign area may not exceed Commercial-20% of facade area of first 15 ft. of bldg. height,Install channel letters. Postal Annex,12/19/2019 04:24:04 PM,02/03/2020 09:38:57 AM,02/03/2020 09:38:57 AM,,Final,Sign Permit,Wall,,,,,true,Internal,false,false,,25,AUSTIN,TX,78745,5,30.23102471,-97.79730599,Mr Kevin Hull,Texas Custom Signs,,,,,,,
12368515,FY 2019,FY 2020,13201 N FM 620 ROAD NB Bldg V,2019-227448 SB,Sign area may not exceed Commercial-20% of facade area of first 15 ft. of bldg. height,"Verizon13201 Ranch Road 620 N. Suite VAustin, TX 78717FRONT SIGN",11/22/2019 02:53:37 PM,03/18/2020 01:09:35 PM,03/18/2020 01:09:35 PM,,Final,Sign Permit,Wall,,,,,true,Internal,false,false,,19.15,AUSTIN,TX,78729,6,30.46793687,-97.79250612,Mr. Hoang Vu,A Star Signs and Printing LLC,,,,,,,
12348546,FY 2019,FY 2020,6412 BURNET ROAD,2019-210704 SB,Sign area may not exceed Commercial-20% of facade area of first 15 ft. of bldg. height,installation of new wall signage by entrance for OFFICE,10/22/2019 10:16:07 AM,01/27/2020 12:26:11 PM,01/27/2020 12:26:11 PM,,Final,Sign Permit,Wall,,,,,true,Internal,false,false,,2.08,AUSTIN,TX,78757,7,30.33956172,-97.73984084,Juan A Escobar,Austin Sign Builders,,,,,,,
12373885,FY 2019,FY 2020,4211 S LAMAR BOULEVARD NB Bunit 3,2019-231766 SB,Sign area may not exceed Expressway Corridor-20% of facade area of first 15 ft. of bldg. height,Front Lit Ind Mounted Channel Letters East Elevation-Freedom Eyecare-North elevation,12/04/2019 05:27:44 PM,07/29/2020 12:00:00 AM,,,Active,Sign Permit,Wall,,,,,true,Internal,false,false,,45.5,AUSTIN,TX,78704,5,30.23424434,-97.79259466,Cassandra Rodriguez,CND Signs,,,,,,,
12416837,FY 2020,FY 2020,2610 LAKE AUSTIN BOULEVARD,2020-025732 SB,Sign area may not exceed Scenic Roadway-10% of facade area of first 15 ft. of bldg. height,new wall sign for CVS (4),02/16/2020 06:28:18 PM,08/14/2020 06:28:18 PM,,,Active,Sign Permit,Wall,,,,,true,Internal,false,false,,52,AUSTIN,TX,78703,10,30.28156254,-97.77505823,Claudia Salguero,,,,,,,,
12389755,FY 2020,FY 2020,9401 S IH 35  NB,2020-002339 SB,Sign area may not exceed Commercial-20% of facade area of first 15 ft. of bldg. height,install channel letters. Floor & Decor. Sign G,01/07/2020 02:41:03 PM,07/05/2020 02:41:04 PM,,,Active,Sign Permit,Wall,,,,,true,Internal,false,false,,216,AUSTIN,TX,78744,5,30.16266228,-97.78700759,Mr Kevin Hull,Texas Custom Signs,,,,,,,
12441578,FY 2020,FY 2020,6210 E US 290 HWY  WB,2020-047300 SB,Sign area may not exceed Expressway Corridor-20% of facade area of first 15 ft. of bldg. height,Install monument. Austin Regional Clinic. ARC East West elevation,03/19/2020 02:34:29 PM,09/15/2020 02:34:30 PM,,,Final,Sign Permit,Freestanding,,,,,true,Internal,false,false,,14,AUSTIN,TX,78752,4,30.32294041,-97.70193396,Mr Kevin Hull,Texas Custom Signs,,,,,,,
12368535,FY 2019,FY 2020,11913 RANCHO ALTO ROAD,2019-227465 SB,Sign area may not exceed Neighborhood Commercial-10% of facade area of first 15 ft. of bldg. height,"""FW"" Logo with ""FUELWISE"" Channel letters illuminated-north elevation",11/22/2019 03:09:39 PM,07/27/2020 12:00:00 AM,,,Active,Sign Permit,Wall,,,,,true,Internal,false,false,,37.5,AUSTIN,TX,78748,5,30.14893832,-97.84225217,Hussain Contractor,Ezzi Signs,,,,,,,
12441583,FY 2020,FY 2020,6210 E US 290 HWY  WB,2020-047305 SB,Sign area may not exceed Expressway Corridor-20% of facade area of first 15 ft. of bldg. height,Install monument sign. Austin Regional Clinic. South East elevation,03/19/2020 02:39:10 PM,09/15/2020 02:39:11 PM,,,Final,Sign Permit,Freestanding,,,,,true,Internal,false,false,,33,AUSTIN,TX,78752,4,30.32294041,-97.70193396,Mr Kevin Hull,Texas Custom Signs,,,,,,,
12312619,FY 2019,FY 2019,10515 N MOPAC EXPRESSWAY NB Bldg A,2019-179389 SB,Sign area may not exceed Scenic Roadway-10% of facade area of first 15 ft. of bldg. height,Install an Illuminated cabinet. Board & Brush,09/04/2019 10:17:43 AM,01/30/2020 11:16:52 AM,01/30/2020 11:16:52 AM,,Final,Sign Permit,Wall,,,,,true,Internal,false,false,,16.71,AUSTIN,TX,78759,7,30.39160434,-97.73244813,Mr Kevin Hull,Texas Custom Signs,,,,,,,
12118434,FY 2019,FY 2019,1316 W BRAKER LANE,2019-008004 SB,Sign area may not exceed Neighborhood Commercial-10% of facade area of first 15 ft. of bldg. height,install new atm sign,01/14/2019 10:06:06 AM,03/24/2020 12:10:20 PM,03/24/2020 12:10:20 PM,,Final,Sign Permit,Wall,,,,,false,Internal,false,false,,3,AUSTIN,TX,78758,7,30.38616467,-97.69504068,Chris Wilke,Baker's Signs & Manufacturing Inc,,,,,,,
12272949,FY 2019,FY 2019,110 W SLAUGHTER LANE,2019-145639 SB,Sign area may not exceed Scenic Roadway-10% of facade area of first 15 ft. of bldg. height,19-1496 NORTH VALERO CANOPY FACING AWAY FROM SLAUGHTER 110 W SLAUGHTER LN,07/05/2019 11:44:05 AM,10/12/2020 12:00:00 AM,07/18/2019 11:11:58 AM,,Active,Sign Permit,Awning,,,,,true,Internal,false,false,,318,AUSTIN,TX,78748,2,30.16743327,-97.78792265,Stormi Wolf,Comet Signs LLC,,,,,,,
12389725,FY 2020,FY 2020,9401 S IH 35  NB,2020-002328 SB,Sign area may not exceed Commercial-20% of facade area of first 15 ft. of bldg. height,install channel letters. Floor & Decor. Sign F,01/07/2020 02:37:37 PM,07/05/2020 02:37:37 PM,,,Active,Sign Permit,Wall,,,,,true,Internal,false,false,,243,AUSTIN,TX,78744,5,30.16266228,-97.78700759,Mr Kevin Hull,Texas Custom Signs,,,,,,,
12448346,FY 2020,FY 2020,8023 BURNET ROAD,2020-053150 SB,Sign area may not exceed Commercial-20% of facade area of first 15 ft. of bldg. height,"Install set of trimless aluminum, internally illuminated, channel letters""Kitchen United Mix"", south elevation",03/31/2020 05:03:46 PM,09/27/2020 05:03:47 PM,,,Active,Sign Permit,Wall,,,,,true,Internal,false,false,,58.23,AUSTIN,TX,78757,7,30.35911059,-97.72983267,Jennifer Garcia,,,,,,,,
12404543,FY 2020,FY 2020,2100 1/2 E. 7th St.,2020-015109 SB,,"OTS Banner. ""Congratulations Graduates"". Linker #64. 04/27/20-05/11/20.",01/31/2020 07:31:04 AM,01/30/2021 07:31:04 AM,,,In Review,Banner Permit,Banner,,05/11/2020 12:00:00 AM,West,2100 1/2 E. 7th St.,,,,,,,,,,,,,Linda Y. Jackson,Huston-Tillotson University,,,,,,,
12265336,FY 2019,FY 2019,6116 1/2 Manchaca Rd.,2019-139086 SB,,"OTS Banner. ""Headwaters School Open House"". Linker #31. 11/04/19-11/18/19.",06/24/2019 09:20:15 AM,06/23/2020 09:20:16 AM,,,Active,Banner Permit,Banner,,,North,6116 1/2 Manchaca Rd.,,,,,,,,,,,,,Cait Taylor,Headwaters School,,,,,,,
12393243,FY 2020,FY 2020,6301 W PARMER LANE Unit 602,2020-005311 SB,Sign area may not exceed Scenic Roadway-10% of facade area of first 15 ft. of bldg. height,Green Herbal Care Reverse channel letters mounted on backer panel and raceway,01/13/2020 02:13:02 PM,07/11/2020 02:13:02 PM,,,Active,Sign Permit,Wall,,,,,true,Internal,true,false,,34.23,AUSTIN,TX,78729,,30.44531377,-97.74371171,Cassandra Rodriguez,CND Signs,,,,,,,
12272958,FY 2019,FY 2019,110 W SLAUGHTER LANE,2019-145644 SB,Sign area may not exceed Scenic Roadway-10% of facade area of first 15 ft. of bldg. height,19-1496 EAST VALERO CANOPY  FACING AWAY FROM CONGRESS AVE 110 W SLAUGHTER LN,07/05/2019 11:52:27 AM,10/12/2020 12:00:00 AM,07/18/2019 11:19:08 AM,,Active,Sign Permit,Awning,,,,,true,Internal,false,false,,150,AUSTIN,TX,78748,2,30.16743327,-97.78792265,Stormi Wolf,Comet Signs LLC,,,,,,,
12373895,FY 2019,FY 2020,4211 S LAMAR BOULEVARD NB Bunit 3,2019-231776 SB,Sign area may not exceed Expressway Corridor-20% of facade area of first 15 ft. of bldg. height,Existing Front Lit Channel letters mounted on raceway-Freedom Eyecare-West elevation,12/04/2019 06:01:33 PM,01/31/2020 08:44:18 AM,01/31/2020 08:44:18 AM,,Final,Sign Permit,Wall,,,,,true,Internal,false,false,,28.64,AUSTIN,TX,78704,5,30.23424434,-97.79259466,Cassandra Rodriguez,CND Signs,,,,,,,
12170315,FY 2019,FY 2019,3700 PAYLOAD PASS,2019-051874 SB,Sign area may not exceed Commercial-20% of facade area of first 15 ft. of bldg. height,Install front lit cabinet on steel pole. SoCo Village,04/05/2019 08:29:34 AM,07/28/2020 12:00:00 AM,,,Active,Sign Permit,Freestanding,,,,,true,Internal,false,false,,140,AUSTIN,TX,78704,3,30.22304732,-97.75528838,Mr Kevin Hull,Texas Custom Signs,,,,,,,
12369560,FY 2019,FY 2020,11913 RANCHO ALTO ROAD,2019-228249 SB,Sign area may not exceed Neighborhood Commercial-10% of facade area of first 15 ft. of bldg. height,"Sign B ""FW"" logo on canopy wall sign. -west elevation",11/25/2019 02:14:49 PM,07/27/2020 12:00:00 AM,,,Active,Sign Permit,Wall,,,,,true,Internal,false,false,,4.5,AUSTIN,TX,78748,5,30.14893832,-97.84225217,Hussain Contractor,Ezzi Signs,,,,,,,
12339796,FY 2019,FY 2020,5789 AIRPORT BOULEVARD,2019-203367 SB,Sign area may not exceed Commercial-20% of facade area of first 15 ft. of bldg. height,Install channel letters. BPL Plasma-west elevation,10/08/2019 02:26:50 PM,02/12/2020 10:03:42 AM,02/12/2020 10:03:42 AM,,Final,Sign Permit,Wall,,,,,true,Internal,false,false,,38,AUSTIN,TX,78752,4,30.32269349,-97.71432087,Mr Kevin Hull,Texas Custom Signs,,,,,,,
12339540,FY 2019,FY 2020,515 CONGRESS AVENUE,2019-203139 SB,Sign area approved by Historic and must comply with the approved plans.,"Install LED illuminated channel letters on raceway reading ""Bank of America"" facing West",10/08/2019 11:41:47 AM,04/05/2020 11:41:48 AM,,,Active,Sign Permit,Wall,,,,,true,Internal,false,false,,39.6,AUSTIN,TX,78701,9,30.26767857,-97.74248354,Jennifer Garcia,,,,,,,,
12395747,FY 2020,FY 2020,4601 N LAMAR BOULEVARD Bunit 501,2020-007406 SB,Sign area may not exceed Commercial-20% of facade area of first 15 ft. of bldg. height,Install push through light cabinet. Perspire Sauna Studio,01/16/2020 01:06:03 PM,07/14/2020 01:06:05 PM,,,Active,Sign Permit,Wall,,,,,true,Internal,false,false,,35,AUSTIN,TX,78751,9,30.31501704,-97.73546934,Mr Kevin Hull,Texas Custom Signs,,,,,,,
12410177,FY 2020,FY 2020,2800 1/2 S. Lamar Blvd.,2020-019880 SB,,"OTS Banner. ""Turkey Trot"". Linker #24. 11/16/20-11/30/20.",02/10/2020 10:25:47 AM,02/09/2021 10:25:47 AM,,12410173,In Review,Banner Permit,Banner,,,South,2800 1/2 S. Lamar Blvd.,,,,,,,,,,,,,Alexandra Villafranca,Thundercould Subs,,,,,,,
12399508,FY 2020,FY 2020,4323 S CONGRESS AVENUE,2020-010718 SB,Sign area may not exceed Commercial-20% of facade area of first 15 ft. of bldg. height,20-0114 ST ELMO WEST SIGN 4323 S CONGRESS,01/23/2020 11:50:52 AM,07/21/2020 11:50:53 AM,,,Active,Sign Permit,Wall,,,,,true,Internal,false,false,,330,AUSTIN,TX,78745,3,30.21845282,-97.76444885,Stormi Wolf,Comet Signs LLC,,,,,,,
12387542,FY 2020,FY 2020,7710 N FM 620 ROAD,2020-000440 SB,Sign area may not exceed Scenic Roadway-10% of facade area of first 15 ft. of bldg. height,install internally illuminated wall sign. Little Sunshine,01/02/2020 03:30:44 PM,06/30/2020 03:30:45 PM,,,Active,Sign Permit,Wall,,,,,true,Internal,false,false,,34,AUSTIN,TX,78726,6,30.41080092,-97.85164198,Mr Kevin Hull,Texas Custom Signs,,,,,,,
12417781,FY 2020,FY 2020,201 1/2 E. Martin Luther King Blvd.,2020-026563 SB,,"OTS Banner. ""Texas Book Festival"". Linker #5. 10/27/20-11/10/20.",02/18/2020 02:00:16 PM,02/17/2021 02:00:16 PM,,12417778,Active,Banner Permit,Banner,,,West,201 1/2 E. Martin Luther King Blvd.,,,,,,,,,,,,,Nicole Wielga,Texas Book Festival,,,,,,,
12326377,FY 2019,FY 2019,4101 W PARMER LANE Unit  D,2019-191108 SB,Sign area may not exceed Scenic Roadway-10% of facade area of first 15 ft. of bldg. height,installation of new wall signage for Green Care Massage,09/25/2019 09:52:35 AM,02/25/2020 12:28:06 PM,02/25/2020 12:28:06 PM,,Final,Sign Permit,Wall,,,,,true,Internal,false,false,,44,AUSTIN,TX,78727,7,30.42546339,-97.71685728,,Newstate Advertising Austin,,,,,,,
12402776,FY 2020,FY 2020,2100 SAN ANTONIO STREET,2020-013531 SB,Sign area may not exceed UNO-20% of facade area of first 15 ft. of bldg. height,ION2100 SAN ANTONIOWALL SIGN NON ILLUMINATED,01/29/2020 10:59:03 AM,07/27/2020 10:59:04 AM,,,Final,Sign Permit,Wall,,,,,true,Internal,false,false,,67.5,AUSTIN,TX,78705,9,30.2841845,-97.74313011,Ms. Ann Lewis,LEWIS SIGN,,,,,,,
12329613,FY 2019,FY 2019,1807 W SLAUGHTER LANE Unit 100,2019-193951 SB,Sign area may not exceed Scenic Roadway-10% of facade area of first 15 ft. of bldg. height,Brick's Pub REverse Channel letters,09/30/2019 03:01:21 PM,09/15/2020 12:00:00 AM,,,Active,Sign Permit,Wall,,,,,true,Internal,false,false,,24.66,AUSTIN,TX,78748,5,30.17264889,-97.82255238,Cassandra Rodriguez,CND Signs,,,,,,,
12441560,FY 2020,FY 2020,6210 E US 290 HWY  WB,2020-047282 SB,Sign area may not exceed Expressway Corridor-20% of facade area of first 15 ft. of bldg. height,Install channel letters. Austin Regional Clinic. NE elevation,03/19/2020 02:21:16 PM,09/15/2020 02:21:17 PM,,,Active,Sign Permit,Wall,,,,,true,Internal,false,false,,97,AUSTIN,TX,78752,4,30.32294041,-97.70193396,Mr Kevin Hull,Texas Custom Signs,,,,,,,
12445000,FY 2020,FY 2020,9001 CAMERON ROAD,2020-050282 SB,Sign area may not exceed Scenic Roadway-10% of facade area of first 15 ft. of bldg. height,Channel letter sign with vinyl installed directly to the wall.,03/25/2020 03:01:09 PM,09/21/2020 03:01:10 PM,,,Active,Sign Permit,Wall,,,,,true,Internal,false,false,,9,AUSTIN,TX,78754,1,30.34642169,-97.67688574,Jeff Papst,,,,,,,,
12144859,FY 2019,FY 2019,10225 RESEARCH BOULEVARD NB Bunit 310,2019-030423 SB,Sign area may not exceed Expressway Corridor-20% of facade area of first 15 ft. of bldg. height,"THE GENTS PLACE [Job# 92J10011] / Sign A - (1) set Reverse-Lit Channel Letters on Backer Panel, Raceway Mount",02/26/2019 05:38:32 PM,02/25/2020 12:36:52 PM,02/25/2020 12:36:52 PM,,Final,Sign Permit,Wall,,,,,false,Internal,false,false,,43.91,AUSTIN,TX,78759,7,30.39459977,-97.7447124,Lady Trixi Shayne Wallis,FSG Signs,,,,,,,
12043046,FY 2018,FY 2018,525 N LAMAR BOULEVARD,2018-171735 SB,Sign area may not exceed Downtown-20% of facade area of first 15 ft. of bldg. height,Install illuminated circular logo signs for Whole Foods and Next Level Burgers,09/28/2018 01:04:12 PM,01/29/2020 11:13:04 AM,01/29/2020 11:13:04 AM,,Final,Sign Permit,Wall,,,,,false,Internal,false,false,,13.33,AUSTIN,TX,78703,9,30.27056891,-97.7540585,Damon Short,Texas Sign Systems,,,,,,,
12293363,FY 2019,FY 2019,1901 SAN ANTONIO STREET Unit FL10,2019-162952 SB,Sign area may not exceed UNO-20% of facade area of first 15 ft. of bldg. height,"INSTALL LED LIT SIGN BOX ""AC HOTELS MARRIOTT"" TO NORTH ELEV. 10 FL. (SIGN #4)",08/05/2019 02:35:44 PM,02/24/2020 10:50:31 AM,02/24/2020 10:50:31 AM,,Final,Sign Permit,Wall,,,,,true,Internal,false,false,,196,AUSTIN,TX,78705,9,30.2822335,-97.74291266,Mary Gorman,,,,,,,,
12441143,FY 2020,FY 2020,11806 N LAMAR BOULEVARD,2020-046914 SB,Sign area may not exceed Neighborhood Commercial-10% of facade area of first 15 ft. of bldg. height,"installation of new wall signage for Smokin Beauty-BBQ, Cocktails, Beer",03/19/2020 08:55:50 AM,09/15/2020 08:55:51 AM,,,Final,Sign Permit,Wall,,,,,true,,false,false,,48,AUSTIN,TX,78753,7,30.38889539,-97.68344826,Matthew Roth,Ted Roth Farms LLC,,,,,,,
12262419,FY 2019,FY 2019,1333 S CONGRESS AVENUE Unit 160,2019-136499 SB,Sign area may not exceed Commercial-20% of facade area of first 15 ft. of bldg. height,Tecovas - Boot shaped Blade sign,06/19/2019 07:10:46 AM,04/16/2020 12:12:54 PM,04/16/2020 12:12:54 PM,,Final,Sign Permit,Projecting,,,,,true,Internal,false,false,,41.75,AUSTIN,TX,78704,9,30.24990026,-97.74923022,Shana Gardner,Ion Art,,,,,,,
12371734,FY 2019,FY 2020,13359 N US 183 HWY  NB Unit 405,2019-229959 SB,Sign area may not exceed Expressway Corridor-20% of facade area of first 15 ft. of bldg. height,"Install white face-lit channel letters and logo on raceway reading ""Bank of America"" facing West",12/02/2019 10:24:14 AM,05/30/2020 10:24:15 AM,,,Active,Sign Permit,Wall,,,,,true,Internal,false,false,,28.85,AUSTIN,TX,78729,6,30.44742255,-97.78731843,Jennifer Garcia,,,,,,,,
12368524,FY 2019,FY 2020,11913 RANCHO ALTO ROAD,2019-227454 SB,Sign area may not exceed Neighborhood Commercial-10% of facade area of first 15 ft. of bldg. height,"Sign C- Canopy Wall Sign ""FUELWISE"" illuminated channel letters",11/22/2019 02:59:49 PM,07/27/2020 12:00:00 AM,,,Active,Sign Permit,Wall,,,,,true,Internal,false,false,,16,AUSTIN,TX,78748,5,30.14893832,-97.84225217,Hussain Contractor,Ezzi Signs,,,,,,,
12118425,FY 2019,FY 2019,1316 W BRAKER LANE,2019-007996 SB,Sign area may not exceed Neighborhood Commercial-10% of facade area of first 15 ft. of bldg. height,remove existing wall sign and install new 7-11 wall sign,01/14/2019 10:01:09 AM,09/20/2020 12:00:00 AM,,,Active,Sign Permit,Wall,,,,,false,Internal,false,false,,27.5,AUSTIN,TX,78758,7,30.38616467,-97.69504068,Chris Wilke,Baker's Signs & Manufacturing Inc,,,,,,,
12407734,FY 2020,FY 2020,3720 FAR WEST BOULEVARD Unit 101,2020-017820 SB,Sign area may not exceed Commercial-20% of facade area of first 15 ft. of bldg. height,20-0206 SOUTH FAR WEST VETERINARY CLINIC WALL SIGN 3720 FAR WEST BLVD #101,02/05/2020 12:01:50 PM,08/03/2020 12:01:51 PM,,,Active,Sign Permit,Wall,,,,,true,Internal,false,false,,97.3,AUSTIN,TX,78731,10,30.35576915,-97.75708354,Stormi Wolf,Comet Signs LLC,,,,,,,
12407860,FY 2020,FY 2020,8000 ANDERSON MILL ROAD,2020-017926 SB,Sign area may not exceed Scenic Roadway-10% of facade area of first 15 ft. of bldg. height,"Install one set of 33 1/4"" internally illuminated (7-Eleven) wall sign, east elevation",02/05/2020 02:03:01 PM,04/17/2020 02:13:58 PM,04/17/2020 02:13:58 PM,,Final,Sign Permit,Wall,,,,,true,Internal,true,false,,52.5,AUSTIN,TX,78729,,30.46062114,-97.75527311,Jennifer Garcia,,,,,,,,
12393537,FY 2020,FY 2020,6719 Manor Rd.,2020-005569 SB,,"OTS Banner. ""Winn Montessori Now Enrolling"". Linker #66. 04/06/20-04/20/20.",01/14/2020 08:11:06 AM,01/13/2021 08:11:06 AM,,,Active,Banner Permit,Banner,,,West,6719 Manor Rd.,,,,,,,,,,,,,Jose  Velasquez,AISD,,,,,,,
12317725,FY 2019,FY 2019,11200 LAKELINE MALL DRIVE,2019-183729 SB,Sign area may not exceed Commercial-20% of facade area of first 15 ft. of bldg. height,19-2691 Spirit Halloween sign A2 (40ft x 4ft)on North elevation,09/12/2019 07:01:36 AM,03/10/2020 07:01:36 AM,,,Final,Sign Permit,Wall,,,,,true,Internal,false,false,,160,AUSTIN,TX,78613,6,30.47051556,-97.80651785,Stormi Wolf,Comet Signs LLC,,,,,,,
12368096,FY 2019,FY 2020,5918 WEST COURTYARD DRIVE,2019-227073 SB,Sign area may not exceed Scenic Roadway-10% of facade area of first 15 ft. of bldg. height,installation of new wall signage for Mediatek- facing West Courtyard Dr,11/22/2019 09:46:54 AM,01/27/2020 10:36:40 AM,01/27/2020 10:36:40 AM,,Final,Sign Permit,Wall,,,,,true,Internal,false,false,,34,AUSTIN,TX,78730,10,30.35339772,-97.79694524,Juan A Escobar,Austin Sign Builders,,,,,,,
12408155,FY 2020,FY 2020,8000 ANDERSON MILL ROAD,2020-018189 SB,Sign area may not exceed Scenic Roadway-10% of facade area of first 15 ft. of bldg. height,"Install one set of 33 1/4 internally illuminated 7Eleven wall sign, North Elevation",02/06/2020 08:03:43 AM,04/17/2020 02:12:01 PM,04/17/2020 02:12:01 PM,,Final,Sign Permit,Wall,,,,,true,Internal,true,false,,52.5,AUSTIN,TX,78729,,30.46062114,-97.75527311,Jennifer Garcia,,,,,,,,
12387368,FY 2020,FY 2020,9616 N LAMAR BOULEVARD,2020-000292 SB,Sign area may not exceed Commercial-20% of facade area of first 15 ft. of bldg. height,Aveanna - Install front lit ch. letters mounted on a raceway on storefront,01/02/2020 11:30:57 AM,10/12/2020 12:00:00 AM,,,Active,Sign Permit,Wall,,,,,true,Internal,false,false,,106,AUSTIN,TX,78753,4,30.36679686,-97.69560219,George  Marquez,,,,,,,,
12389703,FY 2020,FY 2020,9401 S IH 35  NB,2020-002308 SB,Sign area may not exceed Commercial-20% of facade area of first 15 ft. of bldg. height,"install channel letters, Floor & Decor, Sign A",01/07/2020 02:21:27 PM,07/05/2020 02:21:28 PM,,,Active,Sign Permit,Wall,,,,,true,Internal,false,false,,487,AUSTIN,TX,78744,5,30.16266228,-97.78700759,Mr Kevin Hull,Texas Custom Signs,,,,,,,
12382316,FY 2019,FY 2020,1011 S CONGRESS AVENUE,2019-238826 SB,Sign area may not exceed Commercial-20% of facade area of first 15 ft. of bldg. height,"Install d/f illuminated blade sign ""allbirds"", west elevation",12/19/2019 09:23:32 AM,01/31/2020 09:59:33 AM,01/31/2020 09:59:33 AM,,Final,Sign Permit,Wall,,,,,true,Internal,false,false,,5.44,AUSTIN,TX,78704,9,30.25349259,-97.74794176,Jennifer Garcia,,,,,,,,
12284470,FY 2019,FY 2019,2404 RIO GRANDE STREET,2019-155524 SB,Sign may not be located in or overhang any easements or property line.,installation of new freestanding signage*****APPROVED BY HISTORIC DISTRICT. NO OUTDOOR ADVERTISER REG REQUIRED. APPROVED BY SIGN REVIEWER IN DAC CF 9/10/2019*****,07/23/2019 10:13:09 AM,01/19/2020 10:13:09 AM,01/29/2020 12:00:00 AM,,Final,Sign Permit,Freestanding,,,,,true,,false,false,,32,AUSTIN,TX,78705,9,30.28852823,-97.74489028,William C. Archer,,,,,,,,
12387598,FY 2020,FY 2020,7719 BURNET ROAD,2020-000492 SB,Sign area may not exceed Commercial-20% of facade area of first 15 ft. of bldg. height,Installation of new wall signage for HIT Athletics,01/02/2020 05:03:32 PM,06/30/2020 05:03:32 PM,,,Active,Sign Permit,Wall,,,,,true,Internal,false,false,,18,AUSTIN,TX,78757,7,30.35389194,-97.73195337,Lady Trixi Shayne Wallis,FSG Signs,,,,,,,
12449474,FY 2020,FY 2020,502 W WILLIAM CANNON DRIVE,2020-054126 SB,Sign area may not exceed Commercial-20% of facade area of first 15 ft. of bldg. height,Install LED illuminated swinging bell logo facing West,04/02/2020 01:26:29 PM,09/29/2020 01:26:29 PM,,,Active,Sign Permit,Wall,,,,,true,Internal,false,false,,9.9,AUSTIN,TX,78745,2,30.1967024,-97.78587477,Jennifer Garcia,,,,,,,,
12326010,FY 2019,FY 2019,720 BRAZOS STREET,2019-190807 SB,Sign area may not exceed Downtown-20% of facade area of first 15 ft. of bldg. height,CLARK HILL STRASBURGER on the façade facing BRAZOS ST720 BRAZOSEAST WALL SIGN,09/24/2019 03:41:36 PM,01/31/2020 09:51:04 AM,01/31/2020 09:51:04 AM,,Final,Sign Permit,Wall,,,,,false,Internal,false,false,,58.33,AUSTIN,TX,78701,9,30.26923879,-97.74116236,Ms. Ann Lewis,LEWIS SIGN,,,,,,,
12341564,FY 2019,FY 2020,9521 W US 290 HIGHWAY,2019-204831 SB,Sign area may not exceed Commercial-20% of facade area of first 15 ft. of bldg. height,54' SqFt Attached Illuminated Wall Sign for Baylor Scott & White,10/10/2019 11:50:30 AM,03/24/2020 10:02:53 AM,03/24/2020 10:02:53 AM,,Final,Sign Permit,Wall,,,,,true,Internal,true,false,,54,AUSTIN,TX,78737,,30.23003371,-97.93405851,Nathan Lohri,,,,,,,,
12293337,FY 2019,FY 2019,1901 SAN ANTONIO STREET Unit FL10,2019-162929 SB,Sign area may not exceed UNO-20% of facade area of first 15 ft. of bldg. height,"INSTALL LED LIT SIGN BOX ""AC HOTELS MARRIOTT"" TO WALL (SIGN #3 - SOUTH ELEV. 10TH FL.)",08/05/2019 02:21:43 PM,02/24/2020 10:50:17 AM,02/24/2020 10:50:17 AM,,Final,Sign Permit,Wall,,,,,true,Internal,false,false,,196,AUSTIN,TX,78705,9,30.2822335,-97.74291266,Mary Gorman,,,,,,,,
12424636,FY 2020,FY 2020,304 E CESAR CHAVEZ STREET,2020-032681 SB,Sign area may not exceed ##% of facade area of first 15 ft. of bldg. height,"INSTALL CHANGEABLE RESTAURANT I.D. ""COFFEE HOUSE"" MOUNTED ON COLUMN SIGN E2 - (WEST FACE) WEST ELEVATION @ LEVEL 1.",02/24/2020 02:51:14 PM,08/22/2020 02:51:14 PM,,,Application Incomplete,Sign Permit,Wall,,,,,true,Internal,false,false,,4.13,AUSTIN,TX,78701,9,30.26289899,-97.74155674,Mary Gorman,,,,,,,,
12448931,FY 2020,FY 2020,1030 NORWOOD PARK BOULEVARD Bunit 326,2020-053659 SB,Sign area may not exceed Commercial-20% of facade area of first 15 ft. of bldg. height,Install new wall sign.,04/01/2020 03:15:45 PM,09/28/2020 03:15:45 PM,,,Active,Sign Permit,Wall,,,,,true,Internal,false,false,,46.42,AUSTIN,TX,78753,4,30.33915245,-97.69116655,Ephriam Goss,,,,,,,,
12408172,FY 2020,FY 2020,8000 ANDERSON MILL ROAD,2020-018206 SB,Sign area may not exceed Scenic Roadway-10% of facade area of first 15 ft. of bldg. height,"Install internally illuminated Mobil logo box canopy, 7Eleven, north elevation",02/06/2020 08:20:39 AM,04/17/2020 02:10:58 PM,04/17/2020 02:10:58 PM,,Final,Sign Permit,Wall,,,,,true,Internal,true,false,,24.9,AUSTIN,TX,78729,,30.46062114,-97.75527311,Jennifer Garcia,,,,,,,,
11856729,FY 2018,FY 2018,4199 1/2 N. Lamar Blvd.,2018-010067 SB,,"OTS Banner. ""Hyde Park Homes Tour"". Linker #8. 10/29/18-11/12/18.",01/25/2018 12:25:46 PM,07/24/2018 12:25:46 PM,,,Expired,Banner Permit,Banner,,,South,4199 1/2 N. Lamar Blvd.,,,,,,,,,,,,,Ellie Hanlon,Hyde Park Neighborhood Association,,,,,,,
12448347,FY 2020,FY 2020,8023 BURNET ROAD,2020-053151 SB,Sign area may not exceed Commercial-20% of facade area of first 15 ft. of bldg. height,"Install set of trimless aluminum, internally illuminated, channel letters""Kitchen United Mix"", west elevation",03/31/2020 05:06:34 PM,09/27/2020 05:06:34 PM,,,Active,Sign Permit,Wall,,,,,true,Internal,false,false,,58.23,AUSTIN,TX,78757,7,30.35911059,-97.72983267,Jennifer Garcia,,,,,,,,
12307952,FY 2019,FY 2019,9600 S IH 35  SB Bunit 325,2019-175330 SB,Sign area may not exceed Expressway Corridor-20% of facade area of first 15 ft. of bldg. height,"19-1802 WINGSTOP AUSTIN SIGN A - INSTALLING A SET OF ILLUMINATED CHANNEL LETTERS ON THE FRONT ELEVATION OF THE LEASE SPACE AT 9600 IH-35 SOUTH FRONTAGE RD. SUITE 325, FACING THE HIGHWAY.",08/27/2019 10:27:54 AM,07/26/2020 12:00:00 AM,,,Active,Sign Permit,Wall,,,,,true,Internal,false,false,,38.7,AUSTIN,TX,78748,5,30.16056785,-97.79244311,Stormi Wolf,Comet Signs LLC,,,,,,,
12445703,FY 2020,FY 2020,70 RAINEY STREET Unit 200,2020-050889 SB,Sign area approved by Historic and must comply with the approved plans.,Fabricate and install one set of front-lit push-through acrylic channel letters on a backer pan.,03/26/2020 01:49:23 PM,09/22/2020 01:49:23 PM,,,Active,Sign Permit,Wall,,,,,true,Internal,false,false,,19.67,AUSTIN,TX,78701,9,30.25839263,-97.73904571,Helen McKinstry,Saber Sign Solutions,,,,,,,
12176807,FY 2019,FY 2019,1311 AIRPORT COMMERCE DRIVE,2019-057523 SB,Sign area may not exceed Scenic Roadway-10% of facade area of first 15 ft. of bldg. height,"Install  internally illuminated channel letters reading ""Extended Stay America"" on the South elevation",04/15/2019 10:34:09 AM,09/16/2020 12:00:00 AM,,,Active,Sign Permit,Wall,,,,,true,Internal,false,false,,182.9,AUSTIN,TX,78741,3,30.22316385,-97.68562007,Jennifer Garcia,,,,,,,,
12401771,FY 2020,FY 2020,1600 Rosewood Ave.,2020-012689 SB,,"OTS Banner. ""Lifeguard Jobs"". Linker #26. 03/02/20-03/16/20.",01/28/2020 09:41:20 AM,01/27/2021 09:41:21 AM,,,In Review,Banner Permit,Banner,,,West,1600 Rosewood Ave.,,,,,,,,,,,,,Aaron Levine,Austin PARD Aquatics,,,,,,,
12283353,FY 2019,FY 2019,14005 N US 183 HWY  NB Unit 600,2019-154560 SB,Sign area may not exceed Expressway Corridor-20% of facade area of first 15 ft. of bldg. height,Install internally alluminated pan channel letters. Deka Lash,07/22/2019 10:14:53 AM,01/30/2020 10:05:53 AM,01/30/2020 10:05:53 AM,,Final,Sign Permit,Wall,,,,,true,Internal,false,false,,30,AUSTIN,TX,78717,6,30.4757693,-97.79733055,Mr Kevin Hull,Texas Custom Signs,,,,,,,
12390541,FY 2020,FY 2020,3828 PECANA TRAIL,2020-002973 SB,Sign area may not exceed Commercial-20% of facade area of first 15 ft. of bldg. height,23865 SHI west elevation non-illuminated channel logo,01/08/2020 11:02:53 AM,07/06/2020 11:02:54 AM,,,Final,Sign Permit,Wall,,,,,true,Internal,false,false,,27,AUSTIN,TX,78749,8,30.2214931,-97.83123502,John P Gomez,Building Image Group,,,,,,,
12343378,FY 2019,FY 2020,3016 GUADALUPE STREET Bunit 200,2019-206303 SB,Sign area may not exceed Commercial-20% of facade area of first 15 ft. of bldg. height,30 Minute Hit front Lit Channel letters,10/14/2019 10:31:35 AM,03/19/2020 12:11:39 PM,03/19/2020 12:11:39 PM,,Final,Sign Permit,Wall,,,,,true,Internal,false,false,,25.54,AUSTIN,TX,78705,9,30.29781226,-97.74157952,Cassandra Rodriguez,CND Signs,,,,,,,
12401069,FY 2020,FY 2020,8233 INDUSTRY WAY,2020-012093 SB,Sign area may not exceed Scenic Roadway-10% of facade area of first 15 ft. of bldg. height,"Install LED illuminated channel letters on East elevation reading ""Fed-Ex""",01/27/2020 10:31:27 AM,07/25/2020 10:31:27 AM,,,Active,Sign Permit,Wall,,,,,true,Internal,false,false,,69,AUSTIN,TX,78744,2,30.18038435,-97.69072633,Jennifer Garcia,,,,,,,,
12176783,FY 2019,FY 2019,1311 AIRPORT COMMERCE DRIVE,2019-057500 SB,Sign area may not exceed Scenic Roadway-10% of facade area of first 15 ft. of bldg. height,"Install internally illuminated channel letters reading ""Extended Stay America"" on West Elevation",04/15/2019 10:23:21 AM,09/16/2020 12:00:00 AM,,,Active,Sign Permit,Wall,,,,,false,Internal,false,false,,58.7,AUSTIN,TX,78741,3,30.22316385,-97.68562007,Jennifer Garcia,,,,,,,,
12410383,FY 2020,FY 2020,1009 S CONGRESS AVENUE,2020-020052 SB,Sign area may not exceed Commercial-20% of facade area of first 15 ft. of bldg. height,"Install face/edge lit logo sets w/exposed wireway yogo circle reading ""Lululemon"" on West elevation",02/10/2020 12:21:23 PM,08/08/2020 12:21:24 PM,,,Active,Sign Permit,Wall,,,,,true,Internal,false,false,,62.4,AUSTIN,TX,78704,9,30.25378215,-97.74784372,Jennifer Garcia,,,,,,,,
12390469,FY 2020,FY 2020,3828 PECANA TRAIL,2020-002902 SB,Sign area may not exceed Commercial-20% of facade area of first 15 ft. of bldg. height,23865 SHI north elevation non-illuminated channel logo,01/08/2020 10:25:45 AM,07/06/2020 10:25:46 AM,,,Final,Sign Permit,Wall,,,,,true,Internal,false,false,,27,AUSTIN,TX,78749,8,30.2214931,-97.83123502,John P Gomez,Building Image Group,,,,,,,
12183821,FY 2019,FY 2019,7900 E BEN WHITE BLVD  WB,2019-063475 SB,Sign area may not exceed Expressway Corridor-20% of facade area of first 15 ft. of bldg. height,"Tru [Job# 2327009]: Sign 2-Side East Elev - (1) Front Lit Logo Wall Cabinet ""tru"" & Tagline Cabinet ""by Hilton""",04/24/2019 10:51:47 AM,03/23/2020 12:12:19 PM,03/23/2020 12:12:19 PM,,Final,Sign Permit,Wall,,,,,true,Internal,false,false,,54.19,AUSTIN,TX,78741,3,30.22060287,-97.68889176,Lady Trixi Shayne Wallis,FSG Signs,,,,,,,
12394990,FY 2020,FY 2020,11100 METRIC BOULEVARD Unit 750,2020-006766 SB,Sign area may not exceed Commercial-20% of facade area of first 15 ft. of bldg. height,Install 4ft x 10ft electrical sign cabinet on building wall-PPG Paints,01/15/2020 01:22:32 PM,07/13/2020 01:22:33 PM,,,Active,Sign Permit,Wall,,,,,true,Internal,false,false,,40,AUSTIN,TX,78758,4,30.39085819,-97.71073907,Jeff Papst,,,,,,,,
12118498,FY 2019,FY 2019,105 E STASSNEY LANE,2019-008063 SB,Sign area may not exceed Commercial-20% of facade area of first 15 ft. of bldg. height,install new 7-11 wall sign,01/14/2019 10:45:15 AM,09/19/2020 12:00:00 AM,,,Active,Sign Permit,Wall,,,,,false,Internal,false,false,,44.5,AUSTIN,TX,78745,3,30.20426235,-97.77397136,Chris Wilke,Baker's Signs & Manufacturing Inc,,,,,,,
12174998,FY 2019,FY 2019,11113 RESEARCH BLVD  NB,2019-055884 SB,Sign area may not exceed Commercial-20% of facade area of first 15 ft. of bldg. height,SETON NW WALL SIGN -ASCENSION SETON- South elevation,04/11/2019 02:40:32 PM,02/12/2020 09:11:08 AM,02/12/2020 09:11:08 AM,,Final,Sign Permit,Wall,,,,,true,Internal,false,false,,276.65,AUSTIN,TX,78759,7,30.40529074,-97.74345767,Ms. Ann Lewis,LEWIS SIGN,,,,,,,
12382074,FY 2019,FY 2020,12901 N IH 35  NB BUILDING 19,2019-238608 SB,Sign area may not exceed Expressway Corridor-20% of facade area of first 15 ft. of bldg. height,"Install direct mount face lit channel letters ""Aspen Dental"", north elevation",12/18/2019 05:13:45 PM,03/20/2020 10:44:19 AM,03/20/2020 10:44:19 AM,,Final,Sign Permit,Wall,,,,,true,Internal,false,false,,92,AUSTIN,TX,78753,7,30.41525899,-97.67013241,Jennifer Garcia,,,,,,,,
12449266,FY 2020,FY 2020,5717 S IH 35  NB Bunit 140,2020-053939 SB,Sign area may not exceed Expressway Corridor-20% of facade area of first 15 ft. of bldg. height,Install channel letters on raceway. People Ready. North/ West elevation,04/02/2020 09:32:36 AM,09/29/2020 09:32:37 AM,,,Active,Sign Permit,Wall,,,,,true,Internal,false,false,,26,AUSTIN,TX,78744,2,30.19723821,-97.76334537,Mr Kevin Hull,Texas Custom Signs,,,,,,,
12407017,FY 2020,FY 2020,11410 CENTURY OAKS TERRACE Bldg C,2020-017232 SB,Sign area may not exceed Commercial-20% of facade area of first 15 ft. of bldg. height,Install Blade sign. Plank Seafood,02/04/2020 02:28:40 PM,08/02/2020 02:28:41 PM,,,Active,Sign Permit,Projecting,,,,,true,Internal,false,false,,9,AUSTIN,TX,78758,7,30.4016842,-97.72673724,Mr Kevin Hull,Texas Custom Signs,,,,,,,
12416128,FY 2020,FY 2020,1101 S CONGRESS AVENUE,2020-025200 SB,Sign area may not exceed Commercial-20% of facade area of first 15 ft. of bldg. height,"Install halo lit letters reading ""Parachute"" on the East elevation",02/14/2020 09:12:54 AM,08/12/2020 09:12:55 AM,,,Active,Sign Permit,Wall,,,,,true,Internal,false,false,,6.5,AUSTIN,TX,78704,9,30.2532335,-97.74805008,Jennifer Garcia,,,,,,,,
12340547,FY 2019,FY 2020,1007 S CONGRESS AVENUE,2019-204005 SB,Sign area may not exceed Commercial-20% of facade area of first 15 ft. of bldg. height,"Install D/F illuminated blade sign reading ""Equinox"" on East elevation",10/09/2019 11:37:45 AM,02/27/2020 02:08:35 PM,02/27/2020 02:08:35 PM,,Final,Sign Permit,Wall,,,,,true,Internal,false,false,,5.8,AUSTIN,TX,78704,9,30.2540864,-97.74711791,Jennifer Garcia,,,,,,,,
12391644,FY 2020,FY 2020,14005 N US 183 HWY  NB Bunit 550,2020-003938 SB,Sign area may not exceed Expressway Corridor-20% of facade area of first 15 ft. of bldg. height,Install halo lit channel letters. Sit Still Kid's Salon,01/09/2020 04:33:28 PM,07/07/2020 04:33:28 PM,,,Active,Sign Permit,Wall,,,,,true,Internal,false,false,,31,AUSTIN,TX,78717,6,30.4757693,-97.79733055,Mr Kevin Hull,Texas Custom Signs,,,,,,,
12381028,FY 2019,FY 2020,3651-1/2 MONTOPOLIS DRIVE,2019-237750 SB,"1. A letter from an engineer licensed by the State of Texas certifying that the relocated sign is consistent with the approved construction plans and complies with the requirements of the International Building Code, Section 1609 (Wind Loads). 2. A letter from a Registered Professional Land Surveyor, registered by the State of Texas, must certify:a) The exact height of the sign structure verifying it is not greater than 42 feet above ground level street pavement;b) Must certify the height and width of each and every sign face;c) Must certify that the combined total area of all sign faces do not exceed the total area allowed by the relevant sign permit. 3. Letter to be picked up by the Inspector at final electrical inspection:a) A letter from an engineer licensed by the State of Texas certifying the energy efficiency and lighting requirements have been met.",Relocation of existing legal non-conforming off-premise sign from 4141 S CONGRESS AVE to 3651 1/2 MONTOPOLIS DR. *** Relocated from 4141 S CONGRESS AVE to 3651 1/2 MONTOPOLIS DR ***,12/17/2019 02:54:20 PM,10/11/2020 12:00:00 AM,,,Active,Sign Permit,Billboard,,,,,true,External,false,,,600,AUSTIN,TX,78744,2,30.20600298,-97.71611387,,Reagan National Advertising,,,,,,,
12344510,FY 2019,FY 2020,9920 W US 290 HIGHWAY,2019-207338 SB,Sign area may not exceed Commercial-20% of facade area of first 15 ft. of bldg. height,19-2784 CK 4683 Circle K logo sign on front of building North elevation,10/15/2019 03:34:57 PM,01/28/2020 12:24:58 PM,01/28/2020 12:24:58 PM,,Final,Sign Permit,Wall,,,,,true,Internal,true,false,,20.83,AUSTIN,TX,78736,,30.2285965,-97.94202464,Stormi Wolf,Comet Signs LLC,,,,,,,
12389764,FY 2020,FY 2020,9401 S IH 35  NB,2020-002344 SB,Sign area may not exceed Commercial-20% of facade area of first 15 ft. of bldg. height,install channel letters. Floor & Decor. Sign H,01/07/2020 02:44:05 PM,07/05/2020 02:44:05 PM,,,Active,Sign Permit,Wall,,,,,true,Internal,false,false,,243,AUSTIN,TX,78744,5,30.16266228,-97.78700759,Mr Kevin Hull,Texas Custom Signs,,,,,,,
12368127,FY 2019,FY 2020,11913 RANCHO ALTO ROAD,2019-227104 SB,Sign area may not exceed Neighborhood Commercial-10% of facade area of first 15 ft. of bldg. height,"MULTI-TENANT MONUMENT SIGN 11.5 OAH FUELWISE GAS STATING WITH LED GAS PRICING, 3 OTHER TENANT SPACES",11/22/2019 09:59:30 AM,01/29/2020 09:56:10 AM,01/29/2020 09:56:10 AM,,Final,Sign Permit,Freestanding,,,,,true,Internal,false,false,,45.5,AUSTIN,TX,78748,5,30.14893832,-97.84225217,Hussain Contractor,Ezzi Signs,,,,,,,
12389716,FY 2020,FY 2020,9401 S IH 35  NB,2020-002321 SB,Sign area may not exceed Commercial-20% of facade area of first 15 ft. of bldg. height,install channel letters. Floor & Decor. Sign D,01/07/2020 02:31:54 PM,07/05/2020 02:31:55 PM,,,Active,Sign Permit,Wall,,,,,true,Internal,false,false,,66,AUSTIN,TX,78744,5,30.16266228,-97.78700759,Mr Kevin Hull,Texas Custom Signs,,,,,,,
12341017,FY 2019,FY 2020,5800 N MOPAC EXPRESSWAY SB,2019-204350 SB,Sign area may not exceed Scenic Roadway-10% of facade area of first 15 ft. of bldg. height,Remove existing monument cabinet and install new cabinet.,10/09/2019 04:28:38 PM,08/29/2020 12:00:00 AM,,,Active,Sign Permit,Freestanding,,,,,true,Internal,false,false,,27,AUSTIN,TX,78731,10,30.33998299,-97.75493353,Roberta Baker,Bakers Signs,,,,,,,
12358187,FY 2019,FY 2020,4032 S LAMAR BOULEVARD SB Unit 600,2019-218701 SB,Sign area may not exceed Commercial-20% of facade area of first 15 ft. of bldg. height,Installing (1) set of front lit channel letters on the storefront,11/06/2019 11:39:47 AM,02/28/2020 09:57:12 AM,02/28/2020 09:57:12 AM,,Final,Sign Permit,Wall,,,,,true,Internal,false,false,,63,AUSTIN,TX,78704,5,30.23688329,-97.79399655,George  Marquez,,,,,,,,
11993101,FY 2018,FY 2018,61 - 200 1/2 S. Congress Ave.,2018-126956 SB,,"OTS Banner. ""i9 Sports Registration"". Linker #61. 02/04/19-02/18/19.",07/27/2018 08:54:44 AM,07/27/2019 08:54:44 AM,,,Active,Banner Permit,Banner,,,North,200 1/2 S. Congress Ave.,,,,,,,,,,,,,Justin Cannon,i9 Sports,,,,,,,
12118393,FY 2019,FY 2019,10001 W PARMER LANE,2019-007969 SB,Sign area may not exceed Scenic Roadway-10% of facade area of first 15 ft. of bldg. height,install new atm wall sign,01/14/2019 09:45:57 AM,09/19/2020 12:00:00 AM,,,Active,Sign Permit,Wall,,,,,false,Internal,false,false,,3,AUSTIN,TX,78717,6,30.48827824,-97.77214764,Chris Wilke,Baker's Signs & Manufacturing Inc,,,,,,,
12207718,FY 2019,FY 2019,3800 N LAMAR BOULEVARD,2019-083460 SB,Sign area may not exceed Commercial-20% of facade area of first 15 ft. of bldg. height,Install custom illuminated letterset. AT&T. Sign 1,05/29/2019 02:55:09 PM,07/26/2020 12:00:00 AM,,,Active,Sign Permit,Wall,,,,,true,Internal,false,false,,10.28,AUSTIN,TX,78756,10,30.30599503,-97.74302081,Mr Kevin Hull,Texas Custom Signs,,,,,,,
12358399,FY 2019,FY 2020,4005 W PARMER LANE Unit B,2019-218881 SB,Sign area may not exceed Scenic Roadway-10% of facade area of first 15 ft. of bldg. height,Chicness Nails Front Lit channel letters,11/06/2019 02:21:05 PM,03/19/2020 12:16:38 PM,03/19/2020 12:16:38 PM,,Final,Sign Permit,Wall,,,,,true,Internal,false,false,,19.48,AUSTIN,TX,78727,7,30.42536219,-97.71594076,Cassandra Rodriguez,CND Signs,,,,,,,
12376310,FY 2019,FY 2020,11421 N LAMAR BOULEVARD,2019-233795 SB,Sign area may not exceed Commercial-20% of facade area of first 15 ft. of bldg. height,Install channel letters. Lucky Nail Supply,12/09/2019 01:38:09 PM,02/03/2020 07:08:51 AM,02/03/2020 07:08:51 AM,,Final,Sign Permit,Wall,,,,,true,Internal,false,false,,54,AUSTIN,TX,78753,7,30.38340243,-97.68506677,Mr Kevin Hull,Texas Custom Signs,,,,,,,
12401776,FY 2020,FY 2020,801 1/2 E. 51st St.,2020-012694 SB,,"OTS Banner. ""Lifeguard Jobs"". Linker #53. 03/16/20-03/30/20.",01/28/2020 09:46:34 AM,01/27/2021 09:46:34 AM,,,In Review,Banner Permit,Banner,,,West,801 1/2 E. 51st St.,,,,,,,,,,,,,Aaron Levine,Austin PARD Aquatics,,,,,,,
12372147,FY 2019,FY 2020,7809 E BEN WHITE BLVD  EB,2019-230292 SB,Sign area may not exceed Scenic Roadway-10% of facade area of first 15 ft. of bldg. height,"Install (1) set LED lit channel letters to front side of building 2'-0"" x 20'-2 9/16"" = 40.43 SF.",12/02/2019 03:32:42 PM,03/24/2020 09:06:18 AM,03/24/2020 09:06:18 AM,,Final,Sign Permit,Wall,,,,,true,Internal,false,false,,40,AUSTIN,TX,78744,2,30.21830113,-97.68796218,Mary Gorman,,,,,,,,
12210889,FY 2019,FY 2019,201 BRAZOS STREET,2019-086185 SB,Sign area may not exceed Downtown-20% of facade area of first 15 ft. of bldg. height,La Volpe - Blade Sign,06/04/2019 09:48:09 AM,04/16/2020 08:27:57 AM,04/16/2020 08:27:57 AM,,Final,Sign Permit,Projecting,,,,,true,Internal,false,false,,5.75,AUSTIN,TX,78701,9,30.26419698,-97.74250013,Shana Gardner,Ion Art,,,,,,,
12389707,FY 2020,FY 2020,9401 S IH 35  NB,2020-002312 SB,Sign area may not exceed Commercial-20% of facade area of first 15 ft. of bldg. height,"install channel letters. Floor & Decor, Sign B",01/07/2020 02:25:16 PM,07/05/2020 02:25:17 PM,,,Active,Sign Permit,Wall,,,,,true,Internal,false,false,,42,AUSTIN,TX,78744,5,30.16266228,-97.78700759,Mr Kevin Hull,Texas Custom Signs,,,,,,,
12272503,FY 2019,FY 2019,2001 E SH 71 WB,2019-145240 SB,Sign area may not exceed Scenic Roadway-10% of facade area of first 15 ft. of bldg. height,Replace existing cabinets on pylon from non-LED pricers to LED pricers on existing pylon,07/03/2019 03:47:23 PM,01/30/2020 02:13:47 PM,01/30/2020 02:13:47 PM,,Final,Sign Permit,Freestanding,,,,,true,Internal,false,false,,229.39,AUSTIN,TX,78617,2,30.21870805,-97.66836372,Stormi Wolf,Comet Signs LLC,,,,,,,
12293917,FY 2019,FY 2019,8233 INDUSTRY WAY,2019-163410 SB,Sign area may not exceed Scenic Roadway-10% of facade area of first 15 ft. of bldg. height,"Install LED illuminated self-contained channel letters reading ""Fed-Ex"" on North elevation, right side",08/06/2019 12:15:31 PM,01/30/2020 09:20:19 AM,01/30/2020 09:20:19 AM,,Final,Sign Permit,Wall,,,,,true,Internal,false,false,,69,AUSTIN,TX,78744,2,30.18038435,-97.69072633,Jennifer Garcia,,,,,,,,
12370296,FY 2019,FY 2020,2020 E RIVERSIDE DRIVE,2019-228815 SB,Sign area may not exceed Scenic Roadway-10% of facade area of first 15 ft. of bldg. height,Removal of existing signage and replacing with EXPRESS ER - facing Tinnin Ford Rd,11/26/2019 12:00:00 AM,02/24/2020 11:04:34 AM,02/24/2020 11:04:34 AM,,Final,Sign Permit,Wall,,,,,true,Internal,false,false,,36,AUSTIN,TX,78741,3,30.24101816,-97.72709294,,"Stokes Sign Co., Inc.",,,,,,,
12434597,FY 2020,FY 2020,12520 N IH 35  SB,2020-041089 SB,Sign area may not exceed Expressway Corridor-20% of facade area of first 15 ft. of bldg. height,Sign B / Remove and Replace Internally Illuminated Wall Channel Letters reading Springhill Suites by Marriot,03/10/2020 05:10:29 PM,09/06/2020 05:10:29 PM,,,Active,Sign Permit,Wall,,,,,true,Internal,false,false,,82,AUSTIN,TX,78753,7,30.40629331,-97.6763119,Roberta Baker,Bakers Signs,,,,,,,
12353950,FY 2019,FY 2020,1700 E OLTORF STREET Unit 110,2019-215225 SB,Sign area may not exceed Commercial-20% of facade area of first 15 ft. of bldg. height,Tiff's Treats Front Building Sign over entry,10/30/2019 03:04:26 PM,02/12/2020 11:21:28 AM,02/12/2020 11:21:28 AM,,Final,Sign Permit,Wall,,,,,true,Internal,false,false,,38.67,AUSTIN,TX,78741,9,30.23351218,-97.7393039,Harlan Smith,Signtek Austin,,,,,,,
12389710,FY 2020,FY 2020,9401 S IH 35  NB,2020-002315 SB,Sign area may not exceed Commercial-20% of facade area of first 15 ft. of bldg. height,install channel letters. Floor & Decor. Sign C,01/07/2020 02:28:20 PM,07/05/2020 02:28:20 PM,,,Active,Sign Permit,Wall,,,,,true,Internal,false,false,,62,AUSTIN,TX,78744,5,30.16266228,-97.78700759,Mr Kevin Hull,Texas Custom Signs,,,,,,,
12387978,FY 2020,FY 2020,901 E 5TH STREET,2020-000824 SB,Sign area may not exceed UNO-20% of facade area of first 15 ft. of bldg. height,"Install facelit/backlit LED channel letters ""whole foods market"", north elevation",01/03/2020 12:08:27 PM,03/19/2020 10:53:38 AM,03/19/2020 10:53:38 AM,,Final,Sign Permit,Wall,,,,,true,Internal,false,false,,72,AUSTIN,TX,78702,3,30.26427553,-97.73390779,Jennifer Garcia,,,,,,,,
12362763,FY 2019,FY 2020,2120 E 7TH STREET,2019-222705 SB,Sign area may not exceed Commercial-20% of facade area of first 15 ft. of bldg. height,19-3468 SCOTT + COONER SOUTH WALL SIGN 2120 E 7TH ST,11/14/2019 10:18:44 AM,01/30/2020 09:07:28 AM,01/30/2020 09:07:28 AM,,Final,Sign Permit,Wall,,,,,true,Internal,false,false,,41.66,AUSTIN,TX,78702,1,30.26206778,-97.71869515,Stormi Wolf,Comet Signs LLC,,,,,,,
12301797,FY 2019,FY 2019,202 COLORADO STREET,2019-170198 SB,Sign area may not exceed Downtown-20% of facade area of first 15 ft. of bldg. height,Install blade sign. Dry Bar,08/16/2019 02:32:24 PM,02/13/2020 02:09:06 PM,02/13/2020 02:09:06 PM,,Final,Sign Permit,Projecting,,,,,true,Internal,false,false,,4,AUSTIN,TX,78701,9,30.2650061,-97.74560438,Mr Kevin Hull,Texas Custom Signs,,,,,,,
12444377,FY 2020,FY 2020,6618 SITIO DEL RIO BOULEVARD Bunit 102,2020-049738 SB,Sign area may not exceed Scenic Roadway-10% of facade area of first 15 ft. of bldg. height,INSTALL WALL SIGN FOR KUMON,03/24/2020 05:09:27 PM,09/20/2020 05:09:30 PM,,,Active,Sign Permit,Wall,,,,,true,Internal,false,false,,24.05,AUSTIN,TX,78730,10,30.39217135,-97.84252685,Hussain Contractor,Ezzi Signs,,,,,,,
12394301,FY 2020,FY 2020,6301 W PARMER LANE Bunit 204,2020-006203 SB,Sign area may not exceed Scenic Roadway-10% of facade area of first 15 ft. of bldg. height,Chilantro Illuminated Cabinet w/exposed neon.,01/14/2020 04:28:25 PM,07/12/2020 04:28:26 PM,,,Active,Sign Permit,Wall,,,,,true,Internal,true,false,,32.1,AUSTIN,TX,78729,,30.44531377,-97.74371171,Cassandra Rodriguez,CND Signs,,,,,,,
12376167,FY 2019,FY 2020,1300 E 6TH STREET,2019-233658 SB,Sign area may not exceed UNO-20% of facade area of first 15 ft. of bldg. height,"installation of new ""projecting like"" signage for The Lucky Duck",12/09/2019 11:39:37 AM,02/26/2020 09:18:16 AM,02/26/2020 09:18:16 AM,,Final,Sign Permit,Projecting,,,,,true,Internal,false,false,,24,AUSTIN,TX,78702,3,30.26429053,-97.72920696,Juan Escobar,Austin Sign Builders,,,,,,,
12392282,FY 2020,FY 2020,7710 N FM 620 ROAD Bldg 7,2020-004491 SB,Sign area may not exceed ##% of facade area of first 15 ft. of bldg. height,installation of new wall signage for IHOP- ONLY internal illumination of individual letters are allowed internal illumination. -South,01/10/2020 02:58:58 PM,07/08/2020 02:58:59 PM,,,In Review,Sign Permit,Wall,,,,,true,Internal,false,false,,1.77,AUSTIN,TX,78726,6,30.41080092,-97.85164198,Karena Martinez,Extreme Signs,,,,,,,
12434273,FY 2020,FY 2020,10601 N FM 620 ROAD Unit 103,2020-040860 SB,Sign area may not exceed Scenic Roadway-10% of facade area of first 15 ft. of bldg. height,new wall sign for Donut4U sign A,03/10/2020 01:49:09 PM,09/06/2020 01:49:10 PM,,,Active,Sign Permit,Wall,,,,,true,Internal,false,false,,30,AUSTIN,TX,78726,6,30.44421335,-97.83214285,Claudia Salguero,,,,,,,,
12403379,FY 2020,FY 2020,13801 BURNET ROAD Unit 300,2020-014048 SB,Sign area may not exceed Scenic Roadway-10% of facade area of first 15 ft. of bldg. height,"Install face-lit channel letters on raceway reading ""Premier High School"" facing North",01/30/2020 08:51:41 AM,03/18/2020 10:29:48 AM,03/18/2020 10:29:48 AM,,Final,Sign Permit,Wall,,,,,true,Internal,false,false,,142,AUSTIN,TX,78727,7,30.43869844,-97.6976586,Jennifer Garcia,,,,,,,,
12442794,FY 2020,FY 2020,1500 W PARMER LANE,2020-048354 SB,Sign area may not exceed Neighborhood Commercial-10% of facade area of first 15 ft. of bldg. height,19-3239 UFCU SCOFIELD SOUTH WALL SIGN 1500 WEST PARMER LN,03/23/2020 08:11:06 AM,09/19/2020 08:11:06 AM,,,Active,Sign Permit,Wall,,,,,true,Internal,false,false,,91,AUSTIN,TX,78727,7,30.41141826,-97.68591841,Stormi Wolf,Comet Signs LLC,,,,,,,
12403490,FY 2020,FY 2020,12113 METRIC BOULEVARD,2020-014159 SB,Multifamily-May not exceed .5 sq ft for each linear foot of street frontage OR 35 sq ft (the lesser of the two).,"installation of new ""wall like"" signage on limestone structure for Park at Walnut Creek",01/30/2020 10:02:32 AM,07/28/2020 10:02:32 AM,,,Final,Sign Permit,Wall,,,,,true,,false,false,,24,AUSTIN,TX,78758,7,30.4038883,-97.69799361,,"Signs West, Inc.",,,,,,,
12449301,FY 2020,FY 2020,525 N LAMAR BOULEVARD Unit 500,2020-053970 SB,Sign area may not exceed Downtown-20% of facade area of first 15 ft. of bldg. height,"Install internally illuminated wall cabinet ""JuiceLand"", south facing",04/02/2020 10:26:10 AM,09/29/2020 10:26:11 AM,,,Active,Sign Permit,Wall,,,,,true,Internal,false,false,,10.89,AUSTIN,TX,78703,9,30.27056891,-97.7540585,Jennifer Garcia,,,,,,,,
12407852,FY 2020,FY 2020,8000 ANDERSON MILL ROAD,2020-017918 SB,Sign area may not exceed Scenic Roadway-10% of facade area of first 15 ft. of bldg. height,"Install one internally illum'd ""7Eleven"" cabinet monument, East",02/05/2020 01:55:05 PM,04/17/2020 02:10:45 PM,04/17/2020 02:10:45 PM,,Final,Sign Permit,Freestanding,,,,,true,Internal,true,false,,60,AUSTIN,TX,78729,,30.46062114,-97.75527311,Jennifer Garcia,,,,,,,,
12444979,FY 2020,FY 2020,9442 N CAPITAL OF TEXAS HIGHWAY SB,2020-050267 SB,Sign area may not exceed Scenic Roadway-10% of facade area of first 15 ft. of bldg. height,Arboretum Plaza South Elevation Reverse Set of Channel Letters,03/25/2020 02:50:37 PM,09/21/2020 02:50:38 PM,,,Active,Sign Permit,Wall,,,,,true,Internal,false,false,,82.84,AUSTIN,TX,78759,10,30.38985505,-97.74783147,Cassandra Rodriguez,CND Signs,,,,,,,
12403579,FY 2020,FY 2020,1012 W ANDERSON LANE,2020-014246 SB,Sign area may not exceed Commercial-20% of facade area of first 15 ft. of bldg. height,20-0280 DC LAW SQUARE WEST WALL SIGN 1012 W ANDERSON LANE,01/30/2020 10:45:01 AM,07/28/2020 10:45:02 AM,,,Active,Sign Permit,Wall,,,,,true,Internal,false,false,,58,AUSTIN,TX,78757,7,30.34912735,-97.71553523,Stormi Wolf,Comet Signs LLC,,,,,,,
12372169,FY 2019,FY 2020,7809 E BEN WHITE BLVD  EB,2019-230309 SB,Sign area may not exceed Scenic Roadway-10% of facade area of first 15 ft. of bldg. height,"Install (1) set LED lit channel letters ""COURTYARD by MARRIOTT"" 2' X 20'-2 9/16"" = 40.43 SF. to rear elevation (NORTH).",12/02/2019 03:48:22 PM,03/24/2020 09:05:33 AM,03/24/2020 09:05:33 AM,,Final,Sign Permit,Wall,,,,,true,Internal,false,false,,40.43,AUSTIN,TX,78744,2,30.21830113,-97.68796218,Mary Gorman,,,,,,,,
12410185,FY 2020,FY 2020,200 1/2 S. Congress Ave.,2020-019883 SB,,"OTS Banner. ""Turkey Trot"". Linker #61. 11/16/20-11/30/20.",02/10/2020 10:31:40 AM,02/09/2021 10:31:41 AM,,12410173,In Review,Banner Permit,Banner,,,South,200 1/2 S. Congress Ave.,,,,,,,,,,,,,Alexandra Villafranca,Thundercould Subs,,,,,,,
12444914,FY 2020,FY 2020,9001 CAMERON ROAD,2020-050217 SB,Sign area may not exceed Scenic Roadway-10% of facade area of first 15 ft. of bldg. height,Installing a circular lighted sign for buddy's burger logo. The sign is 6ft by 6ft.,03/25/2020 02:08:30 PM,09/21/2020 02:08:31 PM,,,Active,Sign Permit,Wall,,,,,true,Internal,false,false,,36,AUSTIN,TX,78754,1,30.34642169,-97.67688574,Jeff Papst,,,,,,,,
12400546,FY 2020,FY 2020,3201 BEE CAVES ROAD Unit 156,2020-011641 SB,Sign area may not exceed Scenic Roadway-10% of facade area of first 15 ft. of bldg. height,"Install illuminated letterset, Massage Envy",01/24/2020 02:30:48 PM,07/22/2020 02:30:48 PM,,,Active,Sign Permit,Wall,,,,,true,Internal,false,false,,34,AUSTIN,TX,78746,8,30.27280861,-97.80018253,Mr Kevin Hull,Texas Custom Signs,,,,,,,
12411137,FY 2020,FY 2020,2900 W ANDERSON LANE Bldg B,2020-020698 SB,Sign area may not exceed Commercial-20% of facade area of first 15 ft. of bldg. height,19-3902 SOUTH WING STOP WALL SIGN 2900 W ANDERSON LN,02/11/2020 11:46:45 AM,08/09/2020 11:46:46 AM,,,Active,Sign Permit,Wall,,,,,true,Internal,false,false,,28.64,AUSTIN,TX,78757,7,30.35958053,-97.73741263,Stormi Wolf,Comet Signs LLC,,,,,,,
12134227,FY 2019,FY 2019,401 GUADALUPE STREET,2019-021471 SB,Sign area may not exceed Downtown-20% of facade area of first 15 ft. of bldg. height,Republic Square - STAY Z ZAZA wall sign MAIN ID facing Lavaca,02/08/2019 01:12:10 PM,03/20/2020 09:22:01 AM,03/20/2020 09:22:01 AM,,Final,Sign Permit,Wall,,,,,false,Internal,false,false,,14,AUSTIN,TX,78701,9,30.26748681,-97.74664296,Shana Gardner,Ion Art,,,,,,,
12313616,FY 2019,FY 2019,4400 S IH 35  SB,2019-180244 SB,Sign area may not exceed Expressway Corridor-20% of facade area of first 15 ft. of bldg. height,"Install a cabinet with channel letters. CarMax, signB1",09/05/2019 12:03:18 PM,08/12/2020 12:00:00 AM,,,Active,Sign Permit,Wall,,,,,true,Internal,false,false,,139,AUSTIN,TX,78745,3,30.21128331,-97.75551994,Mr Kevin Hull,Texas Custom Signs,,,,,,,
12329619,FY 2019,FY 2019,1807 W SLAUGHTER LANE Unit 100,2019-193955 SB,Sign area may not exceed Scenic Roadway-10% of facade area of first 15 ft. of bldg. height,"""Pub"" Reverse Channel Letter",09/30/2019 03:04:37 PM,09/15/2020 12:00:00 AM,,,Active,Sign Permit,Wall,,,,,true,Internal,false,false,,14.91,AUSTIN,TX,78748,5,30.17264889,-97.82255238,Cassandra Rodriguez,CND Signs,,,,,,,
12316751,FY 2019,FY 2019,3205 N FM 620 ROAD,2019-182888 SB,Sign area may not exceed Scenic Roadway-10% of facade area of first 15 ft. of bldg. height,ENTERPRISE3205 NORTH RR620,09/10/2019 03:28:30 PM,02/11/2020 01:08:15 PM,02/11/2020 01:08:15 PM,,Final,Sign Permit,Wall,,,,,true,Internal,true,false,,60,AUSTIN,TX,78734,,30.39309398,-97.93463537,Ms. Ann Lewis,LEWIS SIGN,,,,,,,
12410250,FY 2020,FY 2020,9600 S IH 35 SVRD SB Bldg  P,2020-019935 SB,Sign area may not exceed Expressway Corridor-20% of facade area of first 15 ft. of bldg. height,installation of new wall signage for Cookie Crumble suite 31 building P,02/10/2020 10:59:30 AM,08/08/2020 10:59:30 AM,,,Active,Sign Permit,Wall,,,,,true,Internal,false,false,,35.8,AUSTIN,TX,78748,5,30.16056785,-97.79244311,Jacob Gillian,Austin Community Signs,,,,,,,
12389543,FY 2020,FY 2020,5701 W SLAUGHTER LANE Bunit  170,2020-002173 SB,Sign area may not exceed Scenic Roadway-10% of facade area of first 15 ft. of bldg. height,installation of new wall signage- MAIN ID for Summer Moon Coffee,01/07/2020 11:56:36 AM,02/12/2020 12:26:00 PM,02/12/2020 12:26:00 PM,,Final,Sign Permit,Wall,,,,,true,Internal,false,false,,33.75,AUSTIN,TX,78749,8,30.20016428,-97.86850028,Juan Escobar,Austin Sign Builders,,,,,,,
12313148,FY 2019,FY 2019,9900-1/2 MC NEIL DRIVE,2019-179859 SB,Sign area may not exceed Scenic Roadway-10% of facade area of first 15 ft. of bldg. height,ASTEN/DENYSEREFACE EXISTING MONUMENT,09/04/2019 06:03:18 PM,03/02/2020 06:03:19 PM,,,Expired,Sign Permit,Freestanding,,,,,true,Internal,false,false,,27,AUSTIN,TX,78750,10,30.39466999,-97.83346764,Arelly Guzman,EXECUTIVE SIGNS,,,,,,,
12372705,FY 2019,FY 2020,1208 S CONGRESS AVENUE,2019-230793 SB,Sign area may not exceed Commercial-20% of facade area of first 15 ft. of bldg. height,Install an open face aluminum channel formed letters on a raceway. Jeni's Ice Creams,12/03/2019 01:22:07 PM,02/13/2020 08:16:35 AM,02/13/2020 08:16:35 AM,,Final,Sign Permit,Wall,,,,,true,Internal,false,false,,19,AUSTIN,TX,78704,9,30.25203616,-97.74900864,Mr Kevin Hull,Texas Custom Signs,,,,,,,
12393650,FY 2020,FY 2020,8712-1/2 APOGEE BOULEVARD,2020-005677 SB,Sign area may not exceed Commercial-20% of facade area of first 15 ft. of bldg. height,Subdivision sign Apogee Blvd - To install monument seat wall with column at corner of Apogee Blvd and Ausblick Ave.,01/14/2020 09:20:42 AM,07/12/2020 09:20:43 AM,,,Active,Sign Permit,Freestanding,,,,,true,Internal,false,false,,90,AUSTIN,TX,78744,2,30.14905297,-97.71504343,Daniel Mcvey,"WLE, LLC",,,,,,,
12426049,FY 2020,FY 2020,2700 W ANDERSON LANE Unit 402,2020-033855 SB,Sign area may not exceed Commercial-20% of facade area of first 15 ft. of bldg. height,20-0367 SOUTH TRIBE WALL SIGN 2700 W ANDERSON LN # 402,02/26/2020 11:22:34 AM,04/15/2020 10:47:51 AM,04/15/2020 10:47:51 AM,,Final,Sign Permit,Wall,,,,,true,Internal,false,false,,60,AUSTIN,TX,78757,7,30.35905881,-97.73460244,Stormi Wolf,Comet Signs LLC,,,,,,,
12339757,FY 2019,FY 2020,5789 AIRPORT BOULEVARD,2019-203335 SB,Sign area may not exceed Commercial-20% of facade area of first 15 ft. of bldg. height,Install channel letters. BPL Plasma-south elevation,10/08/2019 02:16:25 PM,02/12/2020 10:03:25 AM,02/12/2020 10:03:25 AM,,Final,Sign Permit,Wall,,,,,true,Internal,false,false,,38,AUSTIN,TX,78752,4,30.32269349,-97.71432087,Mr Kevin Hull,Texas Custom Signs,,,,,,,
12444915,FY 2020,FY 2020,9001 CAMERON ROAD,2020-050218 SB,Sign area may not exceed Scenic Roadway-10% of facade area of first 15 ft. of bldg. height,"Installation a circular lighted sign box of buddy's burger logo.Size is 72""W 72""H",03/25/2020 02:08:36 PM,09/21/2020 02:08:37 PM,,,Active,Sign Permit,Wall,,,,,true,Internal,false,false,,36,AUSTIN,TX,78754,1,30.34642169,-97.67688574,Jeff Papst,,,,,,,,
12266875,FY 2019,FY 2019,6307-1/2 ROSS ROAD,2019-140410 SB,Sign area may not exceed Commercial-20% of facade area of first 15 ft. of bldg. height,Installation of new subdivision sign for SUNDANCE entry monument,06/25/2019 03:45:20 PM,12/22/2019 03:45:22 PM,,,Expired,Sign Permit,Freestanding,,,,,true,Internal,true,false,,17.9,AUSTIN,TX,78617,2,30.16563639,-97.63570954,Arelly Guzman,EXECUTIVE SIGNS,,,,,,,
12410173,FY 2020,FY 2020,2674 1/2 N. Lamar Blvd.,2020-019876 SB,,"OTS Banner. ""Turkey Trot"". Linker #14. 11/16/20-11/30/20.",02/10/2020 10:23:12 AM,02/09/2021 10:23:13 AM,,,In Review,Banner Permit,Banner,,,North,2674 1/2 N. Lamar Blvd.,,,,,,,,,,,,,Alexandra Villafranca,Thundercould Subs,,,,,,,
12410389,FY 2020,FY 2020,1009 S CONGRESS AVENUE,2020-020057 SB,Sign area may not exceed Commercial-20% of facade area of first 15 ft. of bldg. height,"Install face/edge lit logoset yogo circle reading ""Lululemon"" on the South elevation",02/10/2020 12:26:56 PM,08/08/2020 12:26:57 PM,,,Active,Sign Permit,Wall,,,,,true,Internal,false,false,,20.8,AUSTIN,TX,78704,9,30.25378215,-97.74784372,Jennifer Garcia,,,,,,,,
12408148,FY 2020,FY 2020,8000 ANDERSON MILL ROAD,2020-018182 SB,Sign area may not exceed Scenic Roadway-10% of facade area of first 15 ft. of bldg. height,"Install one set 33 /4"" internally illuminated 7Eleven wall sign, west elevation",02/06/2020 07:55:53 AM,04/17/2020 02:12:24 PM,04/17/2020 02:12:24 PM,,Final,Sign Permit,Wall,,,,,true,Internal,true,false,,52.5,AUSTIN,TX,78729,,30.46062114,-97.75527311,Jennifer Garcia,,,,,,,,
12433684,FY 2020,FY 2020,1210 W 49TH STREET,2020-040352 SB,Sign may not be located in or overhang any easements or property line.,1210 W 49th St Signage / [Job# 92J10837] - AV2S1: Fabricate and install (1) double sided pole sign.,03/09/2020 03:48:20 PM,09/05/2020 03:48:21 PM,,,Application Incomplete,Sign Permit,Freestanding,,,,,true,Internal,false,false,,5.92,AUSTIN,TX,78756,7,30.3194243,-97.7377654,Lady Trixi Shayne Wallis,FSG Signs,,,,,,,
12340514,FY 2019,FY 2020,901 E 5TH STREET,2019-203973 SB,Sign area may not exceed UNO-20% of facade area of first 15 ft. of bldg. height,"Install acrylic faced internal illuminated ""[target logo]"", sign e",10/09/2019 11:21:26 AM,03/19/2020 10:52:01 AM,03/19/2020 10:52:01 AM,,Final,Sign Permit,Wall,,,,,true,Internal,false,false,,4.91,AUSTIN,TX,78702,3,30.26427553,-97.73390779,Jennifer Garcia,,,,,,,,
12134191,FY 2019,FY 2019,401 GUADALUPE STREET,2019-021449 SB,Sign area may not exceed Downtown-20% of facade area of first 15 ft. of bldg. height,Republic Square - WATERFRONT CABANCA BAR-sign on w 4th,02/08/2019 12:49:20 PM,03/20/2020 09:22:31 AM,03/20/2020 09:22:31 AM,,Final,Sign Permit,Projecting,,,,,false,Internal,false,false,,25,AUSTIN,TX,78701,9,30.26748681,-97.74664296,Shana Gardner,Ion Art,,,,,,,
12377238,FY 2019,FY 2020,1630-1/2 E 6TH STREET,2019-234555 SB,Sign area may not exceed UNO-20% of facade area of first 15 ft. of bldg. height,"projecting sign is 8 sq. ft.set back 15' from property line,",12/11/2019 09:08:21 AM,09/13/2020 12:00:00 AM,,,Active,Sign Permit,Projecting,,,,,true,Internal,false,false,,8,AUSTIN,TX,78702,3,30.26257827,-97.72482889,Scott Vaughan,Sign Manufacturer,,,,,,,
12429490,FY 2020,FY 2020,8300 N FM 620 ROAD,2020-036749 SB,Sign area may not exceed Scenic Roadway-10% of facade area of first 15 ft. of bldg. height,"Install LED face lit channel letters ""Cinepolis LUXURY CINEMAS"" w/ acrylic faces mounted on raceway. Sign 1.0 South Elevation - Building B",03/03/2020 08:34:19 AM,08/30/2020 08:34:20 AM,,,Active,Sign Permit,Wall,,,,,true,Internal,false,false,,164.57,AUSTIN,TX,78726,6,30.42191217,-97.84725124,Mary Gorman,,,,,,,,
12449712,FY 2020,FY 2020,10101-1/2 WILDHORSE RANCH TRAIL,2020-054331 SB,Sign area may not exceed Commercial-20% of facade area of first 15 ft. of bldg. height,Update existing subdivision sign for Heritage Wildhorse  A: Fabricate and install (1) non-illuminated freestanding sign for existing structure,04/02/2020 09:27:19 PM,09/29/2020 09:27:20 PM,,,Final,Sign Permit,Freestanding,,,,,true,Internal,false,false,,32,AUSTIN,TX,78724,1,30.33406551,-97.57835969,Lady Trixi Shayne Wallis,FSG Signs,,,,,,,
12384492,FY 2019,FY 2020,5145 N FM 620 ROAD Bunit 140,2019-240554 SB,Sign area may not exceed Scenic Roadway-10% of facade area of first 15 ft. of bldg. height,Installing a face-lit channel letters with tagline capsule on backplate,12/23/2019 04:03:18 PM,02/11/2020 03:11:43 PM,02/11/2020 03:11:43 PM,,Final,Sign Permit,Wall,,,,,true,Internal,true,false,,30,AUSTIN,TX,78732,,30.38917768,-97.88357904,Laura Alvarez,"Giant Sign Company/ Keetyo Enterprises, Inc.",,,,,,,
12429738,FY 2020,FY 2020,5720 BURNET ROAD,2020-036956 SB,Sign area may not exceed Commercial-20% of facade area of first 15 ft. of bldg. height,Install channel letters. Allandale Village. North elevation.,03/03/2020 11:15:10 AM,08/30/2020 11:15:11 AM,,,Active,Sign Permit,Wall,,,,,true,Internal,false,false,,80,AUSTIN,TX,78756,7,30.33301662,-97.74048874,Mr Kevin Hull,Texas Custom Signs,,,,,,,
12351338,FY 2019,FY 2020,4477 S LAMAR BOULEVARD NB,2019-213027 SB,Sign area may not exceed Commercial-20% of facade area of first 15 ft. of bldg. height,WESTGATE CINEMAS - replace existing letter board face with new face on front of building lower left side sign,10/25/2019 01:08:33 PM,02/13/2020 12:00:10 PM,02/13/2020 12:00:10 PM,,Final,Sign Permit,Wall,,,,,true,Internal,false,false,,101,AUSTIN,TX,78745,5,30.23102471,-97.79730599,Harlan Smith,Signtek Austin,,,,,,,
12174889,FY 2019,FY 2019,11113 RESEARCH BLVD  NB,2019-055783 SB,Sign area may not exceed Commercial-20% of facade area of first 15 ft. of bldg. height,NORTHWEST NEW 2 MONUMENT-Sign off of Research,04/11/2019 01:43:32 PM,02/12/2020 09:08:22 AM,02/12/2020 09:08:22 AM,,Final,Sign Permit,Freestanding,,,,,true,Internal,false,false,,32,AUSTIN,TX,78759,7,30.40529074,-97.74345767,Ms. Ann Lewis,LEWIS SIGN,,,,,,,
12396923,FY 2020,FY 2020,1011 E 5TH STREET,2020-008426 SB,Sign area may not exceed UNO-20% of facade area of first 15 ft. of bldg. height,"North building elevation: 30"" White Channel letters and logo - ""Chase"" with octagon non-ullminated",01/20/2020 09:18:32 AM,07/18/2020 09:18:33 AM,,,Final,Sign Permit,Wall,,,,,true,Internal,false,false,,57.6,AUSTIN,TX,78702,3,30.26385119,-97.73252564,Steve Kirkpatrick,IES Commercial Inc,,,,,,,
12389547,FY 2020,FY 2020,5701 W SLAUGHTER LANE Bunit  170,2020-002177 SB,Sign area may not exceed Scenic Roadway-10% of facade area of first 15 ft. of bldg. height,installation of new wall signage- Side elevation(east) for Summer Moon Coffee-Drive-Thru,01/07/2020 12:00:00 AM,02/12/2020 12:24:06 PM,02/12/2020 12:24:06 PM,,Final,Sign Permit,Wall,,,,,true,Internal,false,false,,51,AUSTIN,TX,78749,8,30.20016428,-97.86850028,Juan Escobar,Austin Sign Builders,,,,,,,
12307938,FY 2019,FY 2019,4400 S IH 35  SB,2019-175316 SB,Sign area may not exceed Expressway Corridor-20% of facade area of first 15 ft. of bldg. height,"Replace existing cabinet with channel letters. CarMax, sign A1",08/27/2019 10:21:53 AM,08/12/2020 12:00:00 AM,,,Active,Sign Permit,Freestanding,,,,,true,Internal,false,false,,177.75,AUSTIN,TX,78745,3,30.21128331,-97.75551994,Mr Kevin Hull,Texas Custom Signs,,,,,,,
12401274,FY 2020,FY 2020,1911 ALDRICH STREET Unit 180,2020-012257 SB,Sign area may not exceed Commercial-20% of facade area of first 15 ft. of bldg. height,INSTALL WALL SIGN IN FRONT TOP WOLF GANG BAKERY,01/27/2020 01:00:19 PM,07/25/2020 01:00:19 PM,,,Active,Sign Permit,Wall,,,,,true,Internal,false,false,,10,AUSTIN,TX,78723,9,30.29863201,-97.7043678,Hussain Contractor,Ezzi Signs,,,,,,,
12415515,FY 2020,FY 2020,8557 RESEARCH BLVD SVRD NB Unit  144,2020-024697 SB,Sign area may not exceed Commercial-20% of facade area of first 15 ft. of bldg. height,installation of new wall signage for House of three Gorges suite 144,02/13/2020 11:17:31 AM,08/11/2020 11:17:32 AM,,,Active,Sign Permit,Wall,,,,,true,Internal,false,false,,30.34,AUSTIN,TX,78758,4,30.36097223,-97.71576241,Caifeng Zhang,"Kylin Advertising, Inc",,,,,,,
12425002,FY 2020,FY 2020,1007 S CONGRESS AVENUE Bunit  120,2020-032978 SB,Sign area may not exceed Commercial-20% of facade area of first 15 ft. of bldg. height,Installation of new wall signage for Neighborhood Goods -North elevation,02/25/2020 12:00:00 AM,08/23/2020 09:22:18 AM,,,Active,Sign Permit,Wall,,,,,true,Internal,false,false,,24,AUSTIN,TX,78704,9,30.2540864,-97.74711791,Mike Stephens,Vital Sign Co,,,,,,,
12411652,FY 2020,FY 2020,2801 W WELLS BRANCH PARKWAY,2020-021080 SB,Multifamily-May not exceed .5 sq ft for each linear foot of street frontage OR 35 sq ft (the lesser of the two).,REFACING EXISTING MONUMENT - DENYSE/BECK AT WELLS BRANCH***re-permitting 19-145088 SB***,02/12/2020 12:00:00 AM,08/10/2020 06:58:26 AM,,,Active,Sign Permit,Freestanding,,,,,true,Internal,false,false,,36,AUSTIN,TX,78728,,30.44082349,-97.6896056,Arelly Guzman,EXECUTIVE SIGNS,,,,,,,
12400958,FY 2020,FY 2020,517 W MARTIN LUTHER KING JR BOULEVARD,2020-011995 SB,Sign area may not exceed Commercial-20% of facade area of first 15 ft. of bldg. height,20-0050 WEST P TERRYS WALL SIGN 517 W MARTIN LUTHER KING JR BLVD,01/27/2020 09:22:20 AM,07/25/2020 09:22:20 AM,,,Active,Sign Permit,Wall,,,,,true,Internal,false,false,,50,AUSTIN,TX,78701,9,30.28195098,-97.74362661,Stormi Wolf,Comet Signs LLC,,,,,,,
12431364,FY 2020,FY 2020,12213 TECH RIDGE BOULEVARD,2020-038368 SB,Sign area may not exceed ##% of facade area of first 15 ft. of bldg. height,20-0561 - Installing an illuminated cabinet sign on the left side of the front elevation of the building at 12213 Tech Ridge Blvd.****withdrawn per applicant 3/25/2020****,03/05/2020 10:40:17 AM,09/01/2020 10:40:18 AM,,,Pending,Sign Permit,Wall,,,,,true,Internal,false,false,,19.42,AUSTIN,TX,78753,7,30.39886031,-97.67085578,Stormi Wolf,Comet Signs LLC,,,,,,,
12325632,FY 2019,FY 2019,2530 GUADALUPE STREET,2019-190473 SB,Sign area may not exceed UNO-20% of facade area of first 15 ft. of bldg. height,MezzeMe Front Lit Channel Letters and Capsule,09/24/2019 11:18:37 AM,09/15/2020 12:00:00 AM,,,Active,Sign Permit,Wall,,,,,true,Internal,false,false,,38.07,AUSTIN,TX,78705,9,30.28989733,-97.74157288,Cassandra Rodriguez,CND Signs,,,,,,,
12176812,FY 2019,FY 2019,1311 AIRPORT COMMERCE DRIVE,2019-057528 SB,Sign area may not exceed Scenic Roadway-10% of facade area of first 15 ft. of bldg. height,"Install internally illuminated channel letters reading ""Extended Stay America"" on the East elevation",04/15/2019 10:37:56 AM,09/16/2020 12:00:00 AM,,,Active,Sign Permit,Wall,,,,,true,Internal,false,false,,58.7,AUSTIN,TX,78741,3,30.22316385,-97.68562007,Jennifer Garcia,,,,,,,,
12448352,FY 2020,FY 2020,8023 BURNET ROAD,2020-053156 SB,Sign area may not exceed Commercial-20% of facade area of first 15 ft. of bldg. height,"Install set of trimless aluminum, internally illuminated, channel address numbers ""8023"", south elevation",03/31/2020 05:09:03 PM,09/27/2020 05:09:04 PM,,,Active,Sign Permit,Wall,,,,,true,Internal,false,false,,27.8,AUSTIN,TX,78757,7,30.35911059,-97.72983267,Jennifer Garcia,,,,,,,,
12376511,FY 2019,FY 2020,8127 MESA DRIVE Bunit 299,2019-233972 SB,Sign area may not exceed Commercial-20% of facade area of first 15 ft. of bldg. height,Code Ninjas Channel Letters on Raceway with LED Internal Illumination. North Elevation.,12/09/2019 05:12:38 PM,06/06/2020 05:12:39 PM,,,Active,Sign Permit,Wall,,,,,true,Internal,false,false,,40,AUSTIN,TX,78759,10,30.37318468,-97.75573253,Harlan Smith,Signtek Austin,,,,,,,
12369459,FY 2019,FY 2020,13201 N FM 620 ROAD NB Bldg V,2019-228174 SB,Sign area may not exceed Commercial-20% of facade area of first 15 ft. of bldg. height,"VERIZON13201 Ranch Road 620 N Suite VAustin, TX 78717REAR SIGN",11/25/2019 01:18:28 PM,03/18/2020 01:09:33 PM,03/18/2020 01:09:33 PM,,Final,Sign Permit,Wall,,,,,true,Internal,false,false,,29,AUSTIN,TX,78729,6,30.46793687,-97.79250612,Mr. Hoang Vu,A Star Signs and Printing LLC,,,,,,,
12389546,FY 2020,FY 2020,5701 W SLAUGHTER LANE Bunit  170,2020-002176 SB,Sign area may not exceed Scenic Roadway-10% of facade area of first 15 ft. of bldg. height,installation of new wall signage- Side elevation(east) for Summer Moon Coffee,01/07/2020 12:00:00 AM,02/12/2020 12:22:07 PM,02/12/2020 12:22:07 PM,,Final,Sign Permit,Wall,,,,,true,Internal,false,false,,33.75,AUSTIN,TX,78749,8,30.20016428,-97.86850028,Juan Escobar,Austin Sign Builders,,,,,,,
12397620,FY 2020,FY 2020,10515 N MOPAC EXPY  NB Bunit 210,2020-009070 SB,Sign area may not exceed Scenic Roadway-10% of facade area of first 15 ft. of bldg. height,Install channel letters. Massage Envy,01/21/2020 11:59:52 AM,03/27/2020 09:03:54 AM,03/27/2020 09:03:54 AM,,Final,Sign Permit,Wall,,,,,true,Internal,false,false,,40,AUSTIN,TX,78759,7,30.39160434,-97.73244813,Mr Kevin Hull,Texas Custom Signs,,,,,,,
12400105,FY 2020,FY 2020,1011 S CONGRESS AVENUE Bunit 110,2020-011248 SB,Sign area may not exceed Commercial-20% of facade area of first 15 ft. of bldg. height,"Install channel letters, Reformation, Sign B",01/24/2020 10:01:00 AM,07/22/2020 10:01:01 AM,,,Active,Sign Permit,Wall,,,,,true,Internal,false,false,,15,AUSTIN,TX,78704,9,30.25349259,-97.74794176,Mr Kevin Hull,Texas Custom Signs,,,,,,,
12380870,FY 2019,FY 2020,1700 E OLTORF STREET Unit 100,2019-237609 SB,Sign area may not exceed Commercial-20% of facade area of first 15 ft. of bldg. height,"Install channel letters. The Tooth Inc., South elevation",12/17/2019 01:01:36 PM,03/20/2020 07:44:28 AM,03/20/2020 07:44:28 AM,,Final,Sign Permit,Wall,,,,,true,Internal,false,false,,20,AUSTIN,TX,78741,9,30.23351218,-97.7393039,Mr Kevin Hull,Texas Custom Signs,,,,,,,
12351351,FY 2019,FY 2020,4477 S LAMAR BOULEVARD NB,2019-213040 SB,Sign area may not exceed Commercial-20% of facade area of first 15 ft. of bldg. height,WESTGATE CINEMAS - replace existing letter board face with new face on front of building lower right side sign,10/25/2019 01:18:04 PM,02/13/2020 11:58:54 AM,02/13/2020 11:58:54 AM,,Final,Sign Permit,Wall,,,,,true,Internal,false,false,,101,AUSTIN,TX,78745,5,30.23102471,-97.79730599,Harlan Smith,Signtek Austin,,,,,,,
12396930,FY 2020,FY 2020,1011 E 5TH STREET,2020-008433 SB,Sign area may not exceed UNO-20% of facade area of first 15 ft. of bldg. height,Install non- Illuminating FLAG sign on West elevation - Primary electrical provided by GC to sign location -,01/20/2020 09:37:16 AM,07/18/2020 09:37:16 AM,,,Final,Sign Permit,Wall,,,,,true,Internal,false,false,,57.6,AUSTIN,TX,78702,3,30.26385119,-97.73252564,Steve Kirkpatrick,IES Commercial Inc,,,,,,,
12351345,FY 2019,FY 2020,4477 S LAMAR BOULEVARD NB,2019-213034 SB,Sign area may not exceed Commercial-20% of facade area of first 15 ft. of bldg. height,WESTGATE CINEMAS - replace existing letter board face with new face on front of building lower center side sign,10/25/2019 01:14:10 PM,02/13/2020 11:59:36 AM,02/13/2020 11:59:36 AM,,Final,Sign Permit,Wall,,,,,true,Internal,false,false,,174,AUSTIN,TX,78745,5,30.23102471,-97.79730599,Harlan Smith,Signtek Austin,,,,,,,
12313623,FY 2019,FY 2019,4400 S IH 35  SB,2019-180251 SB,Sign area may not exceed Expressway Corridor-20% of facade area of first 15 ft. of bldg. height,"Install channel letters. CarMax, sign C",09/05/2019 12:10:54 PM,08/12/2020 12:00:00 AM,,,Active,Sign Permit,Wall,,,,,true,Internal,false,false,,45,AUSTIN,TX,78745,3,30.21128331,-97.75551994,Mr Kevin Hull,Texas Custom Signs,,,,,,,
12376438,FY 2019,FY 2020,333 E 2ND STREET,2019-233906 SB,Sign area may not exceed Downtown-20% of facade area of first 15 ft. of bldg. height,19-3131 SOUTH BULL PROJECTING SIGN 333 E 2ND ST,12/09/2019 03:20:27 PM,03/23/2020 06:39:19 AM,03/23/2020 06:39:19 AM,,Final,Sign Permit,Projecting,,,,,true,Internal,false,false,,34.5,AUSTIN,TX,78701,9,30.26328179,-97.74097495,Stormi Wolf,Comet Signs LLC,,,,,,,
12187446,FY 2019,FY 2019,11113 RESEARCH BLVD  NB,2019-066390 SB,Sign area may not exceed Commercial-20% of facade area of first 15 ft. of bldg. height,SETON ASCENSION NWINSTALL A FREESTANDING MONUMENT,04/30/2019 10:03:48 AM,02/12/2020 09:06:43 AM,02/12/2020 09:06:43 AM,,Final,Sign Permit,Freestanding,,,,,true,Internal,false,false,,193,AUSTIN,TX,78759,7,30.40529074,-97.74345767,Ms. Ann Lewis,LEWIS SIGN,,,,,,,
12277543,FY 2019,FY 2019,9511 N LAMAR BOULEVARD,2019-149536 SB,Sign area may not exceed Commercial-20% of facade area of first 15 ft. of bldg. height,INSTALL NEW POLE WITH EXISTING CABINET WELDED ON,07/12/2019 10:40:24 AM,01/08/2020 10:40:25 AM,,,Expired,Sign Permit,Freestanding,,,,,true,Internal,false,false,,99,AUSTIN,TX,78753,4,30.36450068,-97.6956119,Arelly Guzman,EXECUTIVE SIGNS,,,,,,,
12400957,FY 2020,FY 2020,517 W MARTIN LUTHER KING JR BOULEVARD,2020-011994 SB,Sign area may not exceed Commercial-20% of facade area of first 15 ft. of bldg. height,20-0050 EAST P TERRYS WALL SIGN 517 W MARTIN LUTHER KING JR BLVD,01/27/2020 09:20:36 AM,07/25/2020 09:20:37 AM,,,Active,Sign Permit,Wall,,,,,true,Internal,false,false,,50,AUSTIN,TX,78701,9,30.28195098,-97.74362661,Stormi Wolf,Comet Signs LLC,,,,,,,
12396932,FY 2020,FY 2020,1011 E 5TH STREET,2020-008435 SB,Sign area may not exceed UNO-20% of facade area of first 15 ft. of bldg. height,Sign E.4 in attached proposed sign booklet - Install new ATM surround on North building elevation.  Non-illuminating,01/20/2020 09:43:39 AM,07/18/2020 09:43:39 AM,02/12/2020 12:00:00 AM,,Final,Sign Permit,Wall,,,,,true,Internal,false,false,,4.42,AUSTIN,TX,78702,3,30.26385119,-97.73252564,Steve Kirkpatrick,IES Commercial Inc,,,,,,,
12385054,FY 2019,FY 2020,1700 E OLTORF STREET Unit 110,2019-240975 SB,Sign area may not exceed Commercial-20% of facade area of first 15 ft. of bldg. height,Tiff's Treats Wall Sign Channel Letters South Elevation,12/26/2019 01:42:30 PM,02/12/2020 11:21:13 AM,02/12/2020 11:21:13 AM,,Final,Sign Permit,Wall,,,,,true,Internal,false,false,,39,AUSTIN,TX,78741,9,30.23351218,-97.7393039,Harlan Smith,Signtek Austin,,,,,,,
12317723,FY 2019,FY 2019,11200 LAKELINE MALL DRIVE,2019-183727 SB,Sign area may not exceed Commercial-20% of facade area of first 15 ft. of bldg. height,19-2691 Spirit Halloween sign A3 (30ftx7ft)on West elevation,09/12/2019 06:59:12 AM,03/10/2020 06:59:12 AM,,,Final,Sign Permit,Wall,,,,,true,Internal,false,false,,270,AUSTIN,TX,78613,6,30.47051556,-97.80651785,Stormi Wolf,Comet Signs LLC,,,,,,,
12300819,FY 2019,FY 2019,13500 LYNDHURST STREET,2019-169391 SB,0,Denyse/Elizabethchannel letters mounted to roof,08/15/2019 02:42:47 PM,02/11/2020 02:42:48 PM,,,Expired,Sign Permit,Roof,,,,,true,Internal,false,false,,61,AUSTIN,TX,78717,6,30.47644412,-97.78655681,Arelly Guzman,EXECUTIVE SIGNS,,,,,,,
12343594,FY 2019,FY 2020,1806 NUECES STREET,2019-206503 SB,Sign area may not exceed Commercial-20% of facade area of first 15 ft. of bldg. height,Installation of Halo lit Channel Letters on the north facing side of building. Installation of new lighting and panels on the existing Monument sign on the east side of building. Installation of open sign on the interior of north facing window.,10/14/2019 01:52:49 PM,08/10/2020 12:00:00 AM,,,Active,Sign Permit,Wall,,,,,true,Internal,false,false,,17.27,AUSTIN,TX,78701,9,30.28187387,-97.74415682,Harlan Smith,Signtek Austin,,,,,,,
12387438,FY 2020,FY 2020,2410 E RIVERSIDE DRIVE Bunit 1,2020-000358 SB,Sign area may not exceed Scenic Roadway-10% of facade area of first 15 ft. of bldg. height,Aveanna (Riverside)- Install front lit ch. letters mounted on a raceway.,01/02/2020 01:22:08 PM,04/15/2020 02:17:55 PM,04/15/2020 02:17:55 PM,,Final,Sign Permit,Wall,,,,,true,Internal,false,false,,95,AUSTIN,TX,78741,3,30.23678016,-97.72423382,George  Marquez,,,,,,,,
12347844,FY 2019,FY 2020,2727 EXPOSITION BOULEVARD Unit 117,2019-210136 SB,Sign area may not exceed Commercial-20% of facade area of first 15 ft. of bldg. height,BBVA Front Lit channel Letters and backer Panel mounted on raceway,10/21/2019 11:53:44 AM,03/19/2020 01:39:49 PM,03/19/2020 01:39:49 PM,,Final,Sign Permit,Wall,,,,,true,Internal,false,false,,9.12,AUSTIN,TX,78703,10,30.30435394,-97.76446425,Cassandra Rodriguez,CND Signs,,,,,,,
12316792,FY 2019,FY 2019,3205 N FM 620 ROAD,2019-182919 SB,Sign area may not exceed Scenic Roadway-10% of facade area of first 15 ft. of bldg. height,ENTERPRISE3205 NORTH FM620,09/10/2019 03:59:05 PM,02/11/2020 01:08:28 PM,02/11/2020 01:08:28 PM,,Final,Sign Permit,Freestanding,,,,,true,Internal,true,false,,45,AUSTIN,TX,78734,,30.39309398,-97.93463537,Ms. Ann Lewis,LEWIS SIGN,,,,,,,
12445023,FY 2020,FY 2020,9001 CAMERON ROAD,2020-050295 SB,Sign area may not exceed Scenic Roadway-10% of facade area of first 15 ft. of bldg. height,"lighted Channel letters with Black backing ""Buddys Burger"" with LogoSign overall dimensions is 88""H 120""W",03/25/2020 03:09:05 PM,09/21/2020 03:09:06 PM,,,Active,Sign Permit,Wall,,,,,true,Internal,false,false,,73,AUSTIN,TX,78754,1,30.34642169,-97.67688574,Jeff Papst,,,,,,,,
12291958,FY 2019,FY 2019,10214 N IH 35 SVRD SB,2019-161854 SB,Sign area may not exceed Expressway Corridor-20% of facade area of first 15 ft. of bldg. height,Installation of Royal,08/02/2019 12:00:00 AM,08/24/2020 12:00:00 AM,,,Active,Sign Permit,Wall,,,,,true,Internal,false,false,,32,AUSTIN,TX,78753,4,30.36774139,-97.68324034,,Sign Expo Austin,,,,,,,
12373650,FY 2019,FY 2020,7710 N FM 620 ROAD Unit 610,2019-231581 SB,Sign area may not exceed Scenic Roadway-10% of facade area of first 15 ft. of bldg. height,Starbucks Wall Sign Starbucks Siren,12/04/2019 01:54:19 PM,06/01/2020 01:54:20 PM,,,Final,Sign Permit,Wall,,,,,true,Internal,false,false,,9,AUSTIN,TX,78726,6,30.41080092,-97.85164198,Jana Kitchens-Denson,,,,,,,,
12400295,FY 2020,FY 2020,,2020-011417 SB,,"OTS Banner. ""i9 Sports Register Now"". Linker #15. 07/27/20-08/10/20.",01/24/2020 11:45:18 AM,01/23/2021 11:45:18 AM,,,Pending,Banner Permit,Banner,,,,,,,,,,,,,,,,,,,,,,,,,
12390894,FY 2020,FY 2020,911 W ANDERSON LANE Unit 116,2020-003291 SB,Sign area may not exceed ##% of facade area of first 15 ft. of bldg. height,"Installation of illuminated, wireway mounted channel letters for Signarama",01/08/2020 03:54:28 PM,07/06/2020 03:54:29 PM,,,In Review,Sign Permit,Wall,,,,,true,Internal,false,false,,36.28,AUSTIN,TX,78757,7,30.34799827,-97.71479527,Courtney Cox,Signarama,,,,,,,
12372160,FY 2019,FY 2020,7809 E BEN WHITE BLVD  EB,2019-230300 SB,Sign area may not exceed Scenic Roadway-10% of facade area of first 15 ft. of bldg. height,"Install (1) set LED lit channel letters to side elevation (West) - ""Courtyard by Marriott"" 2'-0"" x 20'-2 9/16"" = 40.43 SF.",12/02/2019 03:42:36 PM,03/24/2020 09:06:37 AM,03/24/2020 09:06:37 AM,,Final,Sign Permit,Wall,,,,,true,Internal,false,false,,40.43,AUSTIN,TX,78744,2,30.21830113,-97.68796218,Mary Gorman,,,,,,,,
