Address,BBL,BIN,Borough,CouncilDist,Latitude,Location,Longitude,NTAName,NUMBER,Notes,ObjectId,Operation_Date_Time,STREET,Site_Managed_By,Site_Name,Zipcode,boroCD,ct2010,point,Zip Codes,Community Districts,Borough Boundaries,City Council Districts,Police Precincts
165 Forsyth St,,,Manhattan,1,40.72107,165 Forsyth St,-73.99181,Chinatown,165,,42,,Forsyth St,M'Finda Kalunga Garden,M'Finda Kalunga Garden,10002,103,18,POINT (-73.9918069993593 40.721072999955275),11723,70,4,32,2
50 WEST 127 STREET,1017247000,1087607,Manhattan,9,40.80839,77 West 127th Street between Malcolm X Boulevard and 5th Ave,-73.94325,Central Harlem North-Polo Grounds,50,,37,"Wednesdays, 7:30 AM - 10:30 AM",WEST 127 STREET,GrowNYC,127 Street & Malcolm X Food Scrap Drop Off Site,10027,110,208,POINT (-73.94325100019142 40.80838800009998),12424,18,4,36,18
303 GREENWICH STREET,1001407000,1066317,Manhattan,1,40.71629,"Greenwich Street at Chambers Street,New York,NY",-74.01094,SoHo-TriBeCa-Civic Center-Little Italy,303,,32,"Wednesdays and Saturdays, 8:00 AM - 1:00 PM",GREENWICH STREET,GrowNYC,Tribeca Greenmarket,10013,101,21,POINT (-74.0109402992428 40.71629179942579),11728,56,4,32,1
900 GRAND CONCOURSE,2024600000,2002802,Bronx,16,40.82692,"Grand Concourse and 161 St, Bronx, NY, 10451",-73.9225,East Concourse-Concourse Village,900,,18,"Tuesdays, 8:00 AM - 2:00 PM (Seasonal, June - November)",GRAND CONCOURSE,GrowNYC,Bronx Borough Hall Greenmarket,10451,204,18301,POINT (-73.92250389941891 40.82691969994741),10929,50,5,42,27
924 Kelly Street,2027110000,2005620,Bronx,17,40.8204,924 Kelly Street,-73.89568,Longwood,924,,5,"Mondays, Wednesdays, Saturdays, 10:00 AM - 2:00 Pm (Seasonal, March-November)",Kelly Street,Kelly Street Garden,Kelly Street Garden,10459,202,87,POINT (-73.89568599986933 40.820403000527335),10937,8,5,43,24
1 BOWLING GREEN,1000120000,1000042,Manhattan,1,40.70459,"Broadway at Battery Place,New York,NY, 10004",-74.01425,Battery Park City-Lower Manhattan,1,,17,"Tuesdays, 8:00 AM - 2:00 PM",BOWLING GREEN,GrowNYC,Bowling Green Greenmarket,10004,101,9,POINT (-74.01425150027364 40.70459400021979),11725,56,4,32,1
2007 Mapes Ave,2031060000,2012934,Bronx,17,40.84477,"2007 Mapes Ave, Bronx 10460",-73.88722,East Tremont,2007,,28,"Monday - Fridays, 10:00 AM - 6:00 PM (Closed on DOE closures)",Mapes Ave,Mary Mitchell Center,Mary Mitchell Center,10460,206,371,POINT (-73.88722599981581 40.844771999794666),11269,35,5,43,31
240 EAST 47 STREET,1013207000,1037607,Manhattan,4,40.75299,"East 47 St at 2 Ave,New York,NY, 10017",-73.96988,Turtle Bay-East Midtown,240,,22,"Wednesdays, 8:00 AM - 3:00 PM",EAST 47 STREET,GrowNYC,Dag Hammarskjold Plaza Greenmarket,10017,106,90,POINT (-73.96987969921112 40.75299210011309),12079,71,4,51,9
51 EAST 161 STREET,2024840000,2002987,Bronx,8,40.82805,"161st, River Ave - NE Corner",-73.9257,West Concourse,51,,13,Fridays 7:30 AM - 11:15 AM,EAST 161 STREET,GrowNYC,161st Street - Yankee Stadium,10451,204,195,POINT (-73.92569999919992 40.82805000017436),10930,50,5,35,27
321 West 126th Street,1019530000,1000000,Manhattan,9,40.81164,321 West 126th Street,-73.95052,Central Harlem North-Polo Grounds,321,,41,"Wednesdays, 3:00 PM - 6:00 PM",West 126th Street,William B. Washington Memorial Garden,William B. Washington Memorial Garden,10027,110,215,POINT (-73.95052099935027 40.81164100001074),12424,18,4,36,20
613 New Lots Avenue,3040890000,3090717,Brooklyn,42,40.66496,613 New Lots Avenue,-73.88675,East New York,613,,36,"Saturdays, 9:00 AM - 3:00 PM",New Lots Avenue,East New York Farms!,UCC Youth Farm,11207,305,1124,POINT (-73.88674999975974 40.664960000034206),17214,45,2,25,47
460 WEST 57 STREET,1010660000,1026876,Manhattan,3,40.76911,10th Avenue & West 57th Street,-73.98855,Clinton,460,,14,"Wednesdays 8:00 AM - 2:00 PM (Seasonal, May-December)",WEST 57 STREET,GrowNYC,57th Street Greenmarket,10019,104,139,POINT (-73.98855000010936 40.76911000030289),12081,12,4,10,10
69-05 35 AVENUE,4012560000,4028794,Queens,25,40.74983,"35th Ave & 69th Street, Jackson Heights, NY 11372",-73.89644,Jackson Heights,69-05,,4,"Saturdays, 11:00 AM - 1:00 PM",35 AVENUE,JH SCRAPS,JH Scraps,11377,403,291,POINT (-73.89643800047628 40.7498300003045),14783,53,3,33,66
103-10 ROOSEVELT AVENUE,4019750000,4048556,Queens,21,40.74972,"Corona Plaza, Roosevelt Ave at 103 Street, Queens",-73.86261,North Corona,103-10,,21,"Fridays, 8:00 AM - 1:00 PM (Seasonal, July - November)",ROOSEVELT AVENUE,GrowNYC,Corona Greenmarket,11368,404,405,POINT (-73.86260750007969 40.74971769999352),14510,66,3,21,68
1168 Franklin Ave,2026140000,2004273,Bronx,16,40.82935,1168 Franklin Ave,-73.90343,Morrisania-Melrose,1168,,9,,Franklin Ave,NYC Compost Project Hosted by New York Botanical Garden,St. Augustine Food Pantry,10456,203,185,POINT (-73.90342400018388 40.8293530005443),10934,34,5,42,25
103 EAST 125 STREET,1017740000,1054472,Manhattan,9,40.80514,"125th Street at Park Avenue, outside the Metro-North Station",-73.93913,East Harlem North,103,,33,"Wednesdays, 3:00 PM - 7:00 PM",EAST 125 STREET,GrowNYC,Uptown Grand Central Fresh Food Box,10035,111,196,POINT (-73.9391249003772 40.80514109993887),13093,7,4,36,16
2562 GRAND CONCOURSE,2031540000,2013610,Bronx,15,40.86411,"E. 192 St. btwn Grand Concourse and Valentine, Bronx, NY, 10468",-73.89507,Bedford Park-Fordham North,2562,,29,"Tuesdays, 8:00 AM - 1:30 PM (Seasonal, June - November)",GRAND CONCOURSE,GrowNYC,Poe Park Greenmarket,10458,207,39901,POINT (-73.89506559985128 40.86410719979026),10936,24,5,22,34
96-14 Queens Blvd,4030820000,4072128,Queens,29,40.7296,"96-14 Queens Blvd, Rego Park, NY 11374",-73.86165,Rego Park,96-14,,1,"Thursdays, 7:30 AM - 9:30 AM",Queens Blvd,NYC Compost Project Hosted by Queens Botanical Garden,63rd Dr. M/R Commuter Drop-Off,11374,406,693,POINT (-73.86164519976167 40.729599800511274),14785,40,3,28,70
955 Columbus Ave,1018420000,1000000,Manhattan,7,40.79972,955 Columbus Ave,-73.9621,Morningside Heights,955,,40,"Everyday, dawn to dusk",Columbus Ave,Mobilization for Change Community Garden,Mobilization for Change Community Garden,10025,107,193,POINT (-73.96210100006614 40.799721000627386),12422,20,4,23,15
86-02 Broadway,4015490000,4038764,Queens,25,40.7384,86-02 Broadway,-73.87774,Elmhurst,86-02,,10,"1st and 3rd Sundays of every month, 10:00 AM - 12:00 PM",Broadway,St. James Compost,St. James Compost,11373,404,473,POINT (-73.87774200003219 40.73839700025188),14784,66,3,5,68
25-30 Skillman Ave,,,Queens,26,40.74344,"25-30 Skillman Ave, Long Island City, NY 11101",-73.94285,Hunters Point-Sunnyside-West Maspeth,25-30,"Requests that leaves be put in a leaf bay labeled ""Soft weeds and leaves, no branches or thorns"", and that they be brought in paper leaf bags, no plastic",8,"Everyday, dawn to dusk",Skillman Ave,Smiling Hogshead Ranch,Smiling Hogshead Ranch*,11101,402,1,POINT (-73.94285199979898 40.74343799950627),16858,53,3,33,66
193 FT WASHINGTON AVENUE,1021390000,1063403,Manhattan,10,40.84217,"168th Street at Fort Washington,New York,NY 10032",-73.94229,Washington Heights South,193,,25,"Tuesdays, 8:00 AM - 3:00 PM (Seasonal, June - November)",FT WASHINGTON AVENUE,GrowNYC,Fort Washington Greenmarket,10032,112,255,POINT (-73.94228900012479 40.84217160002403),13090,47,4,39,21
235 BROOK AVENUE,2022830000,2091055,Bronx,8,40.80766,"138th, Brook Ave - NW Corner",-73.9193,Mott Haven-Port Morris,235,,20,"Fridays, 6:45 AM - 10:45 AM",BROOK AVENUE,GrowNYC,Brook Ave,10454,201,39,POINT (-73.91929999977582 40.807660000431994),10932,49,5,35,23
340 EAST 93RD STREET,1015550000,1078668,Manhattan,5,40.78103,"1st Ave between 92nd and 93rd St,New York,NY,10128",-73.94632,Yorkville,340,,15,"Sundays 9:00 AM - 1:00 PM (Seasonal, June-November)",EAST 93RD STREET,GrowNYC,92nd Street Greenmarket,10128,108,154,POINT (-73.94631839983388 40.78103440017871),10099,23,4,1,11
854 Hunts Point Ave,2027620000,2006432,Bronx,17,40.81803,854 Hunts Point Ave,-73.88864,Hunts Point,854,,30,"Wednesdays, 3:00 PM - 6:30 PM",Hunts Point Ave,GrowNYC,Project H.O.P.E. Fresh Food Box,10474,202,11502,POINT (-73.88864400068114 40.818032000066104),12343,8,5,43,24
1257 Loring Avenue,3044880000,3326209,Brooklyn,42,40.66809,1257 Loring Avenue,-73.86553,East New York,1257,,35,"Tuesdays, 10:00 AM - 12:00 PM (Seasonal, June - November)",Loring Avenue,East New York Farms!,Pink Houses Community Farm,11208,305,1214,POINT (-73.8655329995543 40.66808999979255),17215,45,2,25,47
385 Beach 45th St,4158370000,4000000,Queens,31,40.5954,"385 Beach 45th St. Rockaway, NY 11691",-73.77654,Hammels-Arverne-Edgemere,385,,3,"Everyday, dawn to dusk",Beach 45th St,Edgemere Farm,Edgemere Farm,11691,414,97204,POINT (-73.7765410000974 40.59540100048003),20529,51,3,47,59
5 Hudson Blvd East,1007050000,1000000,Manhattan,3,40.75559,5 Hudson Blvd East,-73.99972,Hudson Yards-Chelsea-Flatiron-Union Square,5,,39,"Thursdays, 10:00 AM - 6:00 PM",Hudson Blvd East,Hudson Yards/ Hell's Kitchen Alliance,Hudson Blvd Park,10001,104,99,POINT (-73.99972100001158 40.75558800014944),11722,12,4,10,6
73-50 Little Neck Parkway,4084010000,4572707,Queens,23,40.74841,73-50 Little Neck Parkway,-73.721,Bellerose,73-50,,7,Every Day 10:00 AM -5:00 PM,Little Neck Parkway,Queens County Farm Museum,Queens County Farm Museum,11004,413,1567,POINT (-73.72100199987719 40.74840600008288),24335,63,3,16,63
400 EAST FORDHAM ROAD,2030338000,2116415,Bronx,15,40.86115,E Fordham Rd btw Webster Ave & Third Ave - S,-73.8908,Fordham South,400,,24,"Fridays, 8:00 AM - 1:00 PM (Seasonal, June 15th - November 30th)",EAST FORDHAM ROAD,GrowNYC,Fordham Plaza Greenmarket,10458,206,38302,POINT (-73.8908000004762 40.861150000133044),10936,35,5,22,31
4967 BROADWAY,1022420000,1082059,Manhattan,10,40.86901,"Isham St at Cooper,New York,NY, 10034",-73.92033,Marble Hill-Inwood,4967,,26,"Saturdays, 8:00 AM - 12:00 PM",BROADWAY,GrowNYC and New York Restoration Project,Inwood Greenmarket,10034,112,303,POINT (-73.92032590010965 40.86901029989803),13092,47,4,39,22
73-24 Yellowstone Blvd,4031500000,4467419,Queens,29,40.71741,73-24 Yellowstone Blvd.,-73.85751,Forest Hills,73-24,,11,,Yellowstone Blvd,The Compost Collective,The Compost Collective,11375,406,709,POINT (-73.85751299945929 40.71741099992223),14786,40,3,28,70
132 EAST 7 STREET,1004028000,1005082,Manhattan,2,40.72606,"E 7th St & Avenue A, New York, NY 10009",-73.98354,East Village,132,,31,"Sundays, 8:00 Am - 1:00 PM",EAST 7 STREET,GrowNYC,Tompkins Square Greenmarket,10009,103,32,POINT (-73.98354290035918 40.7260553998618),11729,70,4,50,5
84-02 MANTON ST,4096510000,4206518,Queens,24,40.70968,Briarwood E/F Subway Station Entrance (North side of Queens Boulevard),-73.81903,Briarwood-Jamaica Hills,84-02,,2,"Tuesdays, 7:30am - 9:30am",MANTON ST,NYC Compost Project Hosted by Queens Botanical Garden,Commuter Composting at Briarwood E/F,11435,408,22002,POINT (-73.81903040072578 40.709680400154355),24670,25,3,24,65
11 8 AVENUE,1006250000,1011444,Manhattan,3,40.73755,"West 12 Street and 8 Avenue,New York,NY,10014",-74.00481,West Village,11,,16,"Saturdays, 8:00 AM - 1:00 PM",8 AVENUE,GrowNYC,Abingdon Square Greenmarket,10014,102,77,POINT (-74.00481279915655 40.73754619998785),12077,57,4,10,3
1130 Grand Concourse,2024620000,2002833,Bronx,16,40.83264,1130 Grand Concourse,-73.91877,East Concourse-Concourse Village,1130,,19,"Thursdays, 1:30 PM - 5:30 PM",Grand Concourse,GrowNYC,Bronxworks,10456,204,18102,POINT (-73.91877350072866 40.83263979968544),10934,50,5,42,27
5955 Shore Parkway,3083290000,3391490,Brooklyn,46,40.63366,5955 Shore Parkway,-73.88596,Canarsie,5955,,34,"Fridays, 8:00 AM - 3:00 PM (Seasonal, June - November)",Shore Parkway,East New York Farms!,Bayview Houses,11236,318,1034,POINT (-73.88595500003494 40.63366300013507),13827,5,2,8,42
100 WEST MOSHOLU PARKWAY SOUTH,2032510000,2095215,Bronx,11,40.88123,100 West Mosholu Parkway,-73.88758,Van Cortlandt Village,100,,6,"Tuesdays and Thursdays , 4:00 PM - Dusk (Until end of November)",WEST MOSHOLU PARKWAY SOUTH,NYC Compost Project Hosted by New York Botanical Garden,Meg's Community Garden @ Dewitt Clinton High School Campus,10468,207,409,POINT (-73.88758300007986 40.88123299968707),11606,24,5,40,34
500 GRAND CONCOURSE,2023430000,2001019,Bronx,17,40.81844,"Grand Concourse, 149th Street - SE Corner",-73.9272,Mott Haven-Port Morris,500,,12,Fridays 7:15 AM - 11:15 AM,GRAND CONCOURSE,GrowNYC,149th St -- Grand Concourse,10451,201,51,POINT (-73.92720000042587 40.8184399998955),10929,49,5,43,23
42-20 KISSENA BOULEVARD,4051347000,4115673,Queens,20,40.75625,"Maple Playground, Maple Avenue and Kissena Boulevard, Flushing",-73.82584,Flushing,42-20,,23,"Wednesdays, 8:00 AM - 1:00 PM (Seasonal, July-November)",KISSENA BOULEVARD,GrowNYC,Flushing Greenmarket,11355,407,853,POINT (-73.82584509976503 40.75625010033057),14190,22,3,3,67
118 W 134th St,1019180000,1000000,Manhattan,9,40.81428,118 W 134th St,-73.94283,Central Harlem North-Polo Grounds,118,,38,"Mondays-Fridays, 9:00 AM - 5:00 PM",W 134th St,Harlem Grown,Harlem Grown,10030,110,226,POINT (-73.94283400036635 40.814279999463096),12427,18,4,36,20
638 EAST 169 STREET,2026150000,2004306,Bronx,16,40.8312,McKinley Sq. at 169th St. & Boston Road,-73.90041,Morrisania-Melrose,638,,27,"Wednesdays, 10:00 AM - 3:00 PM (Seasonal, July - November)",EAST 169 STREET,GrowNYC,"Learn it, Grow it, Eat it Youthmarket",10456,203,149,POINT (-73.90041330082632 40.83120210006391),10934,34,5,42,25
