Mine ID Number,Permittee Name,Mine Name,Status,Facility Location,County,Town,Acres Controlled,Acres Permitted for Life Of Mine,Acres Affected,Acres Reclaimed,Acres BB,Acres BB Range,Commodity,Initial Permit Date,Permit Issue Date,Permit End Date,Date Of Last Inspection,Latitude,Longitude,Reclamation Type,Financial Security Amount,Underground Mine,Last Modified Date,Map Flag,New Georeferenced Column
10093,"Keese, Harold & Fred",,N,"855 Sunrise Hwy, Lynbrook, NY, 11563 0281",Suffolk     ,Riverhead      ,0,0,8,0,8,2,Sand and Gravel,,,,,40.9268,-72.692499999999995,IND,21000,No,04/12/2007 12:00:00 AM,UC  ,
50098,William M Larned & Sons Inc,,R, ,Saratoga    ,Clifton Park   ,4,0,4,4,0,1,Sand and Gravel,04/16/1978,,04/16/1988,,42.839280000000002,-73.679060000000007,GRAS,8000,No,10/24/2005 12:00:00 AM,UCR ,
50445,William M Larned & Sons Inc,,R, ,Saratoga    ,Ballston       ,0,0,5,5,0,1,Sand and Gravel,04/16/1989,,04/16/1990,,42.902679999999997,-73.896969999999996,GRAS,10000,No,10/24/2005 12:00:00 AM,UCR ,
50501,"Cowan, Erwin L",,R,"West Main St., Chateaugay, NY, 12920",Franklin    ,Burke          ,0,0,4,4,0,1,Sand and Gravel,03/08/1991,,03/08/1996,,44.890450000000001,-74.134609999999995,GRAS,1700,No,03/25/2003 12:00:00 AM,UCR ,
60210,"Bell, J H",,R,"P. O. Box 307, Poland, NY, 13431 0030",Herkimer    ,Columbia       ,0,0,0,0,0,1,Sand and Gravel,,,01/01/1901,,,,,0,No,03/28/2003 12:00:00 AM,UCR ,
60323,"Foley, Peter",,R,"Gulf Road, Frankfort, NY, 13340",Herkimer    ,Schuyler       ,0,0,0,0,0,1,Sand and Gravel,,,10/31/1985,,,,,0,No,03/28/2003 12:00:00 AM,UCR ,
60907,A Servidone Inc,Kiwanis Road Mine,R,"1364 Route 9, Castleton, NY 12033",Oneida      ,Lee            ,62,5,5,5,0,1,Sand and Gravel,03/05/1996,08/13/1996,03/01/1999,,43.296370000000003,-75.574119999999994,GRAS,10000,No,06/17/2019 12:00:00 AM,UCR ,
70065,Albin Construction Corporation,Region 4 Mine Town Of Deposit,N,Delaware County,Delaware    ,Deposit        ,1,0,0,0,0,1,Sand and Gravel,04/28/1975,,,,,,,0,No,10/30/2006 12:00:00 AM,UC  ,
80443,Waste Management of New York LLC,,N, ,Monroe      ,Brighton       ,0,0,0,0,0,1,Sand and Gravel,,,,,,,,0,No,11/10/2010 12:00:00 AM,UC  ,
70786,"Currie, John",Dry Creek -  NYS Route 11,N,"7169 Route 11, Tully, NY, 13159",Cortland    ,Preble         ,100,1,1,0,1,1,Sand and Gravel,07/22/1997,,,,,,LAKE,0,No,04/01/2003 12:00:00 AM,UC  ,
80049,Potter Dewitt Corp,,N, ,Monroe      ,Hamlin         ,0,0,0,0,0,1,Sand and Gravel,,,,,43.357959999999999,-77.973439999999997,,0,No,01/04/2018 12:00:00 AM,UC  ,
80289,Dalrymple Gravel & Contracting Co Inc,,R,"PO BOX 284, ELMIRA, NY, 14902 0028",Chemung     ,Big Flats      ,0,0,6,6,0,1,Sand and Gravel,,,02/27/1983,,42.169170000000001,-76.876180000000005,,0,No,04/27/2007 12:00:00 AM,UCR ,
50975,"Johnstown, Town of",Knoblaugh Mine,A,North of end of Knoblaugh Road,Fulton      ,Johnstown      ,45.5,20,8,0,8,2,Sand and Gravel,12/20/2005,10/27/2015,10/26/2020,05/30/2018,43.043145000000003,-74.406991000000005,GRAS,0,No,12/01/2016 12:00:00 AM,UC  ,
70598,"Montclair, Alan",Engles Mine,N,Engles Road,Oswego      ,Hannibal       ,0,0,0,0,0,1,Sand and Gravel,06/13/1990,,,,43.368470000000002,-76.522559999999999,,0,No,02/24/2004 12:00:00 AM,UC  ,
61056,"Bowdish, James or Patricia",Murphy Road Sand Pit,V,Murphy Road and Basly Road,St. Lawrence ,Lisbon         ,50.1,11.4,2.8,2.8,0,1,Sand and Gravel,06/21/2005,10/19/2005,10/20/2010,09/27/2006,44.6875,-75.293000000000006,OTH,0,No,06/26/2007 12:00:00 AM,UC  ,
70916,Tompkins Bluestone Co Inc,Flanders Hill Road,N,Flanders Hill Road,Broome      ,Windsor        ,100,1,1,1,0,1,Bluestone      ,08/10/2006,,,08/10/2006,42.054189999999998,-75.591489999999993,,0,No,02/05/2007 12:00:00 AM,C   ,
80430,Wayne County Highway Dept,Henry's Pit,R,"7227 Rt 31, Lyons, NY, 14489",Wayne       ,Sodus          ,6,6,6,6,0,1,Glacial Till   ,,08/17/1988,08/08/1991,,43.189570000000003,-77.003489999999999,AGRI,0,No,04/01/2003 12:00:00 AM,UCR ,
60088,"Macomb, Town of",,R,"Rd # 3, Hammond, NY, 13646",St. Lawrence ,Macomb         ,10,0,10,10,0,1,Sand and Gravel,,,01/01/1901,,,,GRAS,0,No,03/27/2003 12:00:00 AM,UCR ,
60703,"Randall, Richard",West Parishvile Mine,R,"81 West Parishville Road, Potsdam, NY, 13676 0000",St. Lawrence ,Parishville    ,79,12,5,5,0,1,Sand and Gravel,03/20/1990,02/13/2007,02/01/2009,06/10/2008,44.595860000000002,-74.939239999999998,GRAS,0,No,06/11/2008 12:00:00 AM,UCR ,
80060,"Huron, Town of",,R, ,Wayne       ,Huron          ,0,0,3,3,0,1,Sand and Gravel,,,,,43.241770000000002,-76.858680000000007,,0,No,01/04/2018 12:00:00 AM,UCR ,
60840,NYS DEC,Bog River Flow Pit,A,Long Pond Road,St. Lawrence ,Colton         ,2327,1.2,1.2,0,1.2,1,Sand and Gravel,06/07/1993,12/31/2015,01/01/2021,10/03/2019,44.107700000000001,-74.675560000000004,GRAS,0,No,09/13/2017 12:00:00 AM,UC  ,
70458,"Allen, Roger S Sr",Deer Run,N,"County Route 4, Central Square",Oswego      ,Hastings       ,0,0,0,0,0,1,Sand and Gravel,02/23/1988,,,,,,GRAS,0,No,02/24/2004 12:00:00 AM,UC  ,
60697,Murcrest Farms LLC,Switzer Road Mine,A,"East on Switzer Rd, 760ft North of NYS Rte 12",Jefferson   ,Champion       ,100,2,2,0,2,1,Shale          ,02/28/1990,03/03/2017,03/01/2022,07/26/2018,43.919341000000003,-75.737959000000004,GRAS,10426,No,01/29/2018 12:00:00 AM,C   ,
80150,"Dansville, Town of",Howe Pit,R,Hartman Rd,Steuben     ,Dansville      ,0,0,3,3,0,1,Sand and Gravel,,,,,42.497672000000001,-77.665648000000004,GRAS,0,No,12/01/2016 12:00:00 AM,UCR ,
80482,"Canisteo, Town of",Campbell Pit,R,"South Main Street, Canisteo, NY, 14823",Steuben     ,Canisteo       ,80,6,2.5,2.5,0,1,Sand and Gravel,04/10/1987,12/17/2008,12/17/2013,10/28/2013,42.189570000000003,-77.521109999999993,GRAS,0,No,10/29/2013 12:00:00 AM,UCR ,
40468,"Persson, Bruce",Rt. 10/Walton Pit,R, ,Delaware    ,Walton         ,14,13,13,13,0,1,Sand and Gravel,06/21/1987,09/08/2006,05/13/2007,10/08/2008,42.154389999999999,-75.099310000000003,GRAS,0,No,10/15/2008 12:00:00 AM,UCR ,
80330,Seven Pines Dairy Farm,never permitted,N, ,Statewide   ,,0,0,0,0,0,1,Sand and Gravel,,,,,,,,0,No,01/05/2018 12:00:00 AM,UC  ,
60164,Soper's Excavation & Trucking,,N,"Rd # 3, Pearl Street Road, Watertown, NY, 13601 0980",Jefferson   ,Rutland        ,0,0,2,2,0,1,Sand and Gravel,,,01/01/1901,,,,GRAS,0,No,03/27/2003 12:00:00 AM,UC  ,
80853,"Woodhull, Town of",Fish Gravel Pit,A,Co Rte 82,Steuben     ,Woodhull       ,251.6,4.7,4.7,0,4.7,1,Sand and Gravel,06/03/2013,03/31/2016,03/30/2021,05/21/2019,42.07902,-77.444802999999993,AGRI,0,No,12/09/2019 12:00:00 AM,UC  ,
90589,"Sawyer, Dean",Sawyer Gravel Pit,A,West Side Of Rt. 98;  North Of Lindsey Road.,Wyoming     ,Attica         ,30,6,5,0,5,1,Sand and Gravel,05/21/1993,10/23/2014,05/21/2019,08/14/2019,42.831060000000001,-78.29674,AGRI,35848,No,01/28/2020 12:00:00 AM,UC  ,
80225,"Dix, Town of",,N, ,Schuyler    ,Dix            ,0,0,6,6,0,1,Sand and Gravel,,,,,42.327770000000001,-76.890280000000004,,0,No,01/04/2018 12:00:00 AM,UC  ,
60618,"Colton, Town of",Thomas Mine,A,"North on NYS Rte 56, 400 feet East of Cove Road",St. Lawrence ,Colton         ,116,4,4,0,4,1,Sand and Gravel,11/30/1988,12/13/2017,12/01/2022,06/20/2019,44.512259999999998,-74.898439999999994,GRAS,0,No,02/21/2018 12:00:00 AM,UC  ,
80191,"Yunis, Nicholas",,N,"214 East Church St., Elmira, NY, 14901 0270",Yates       ,Barrington     ,0,0,0,0,0,1,Sand and Gravel,,,,,42.514470000000003,-77.102990000000005,,0,No,01/04/2018 12:00:00 AM,UC  ,
70402,"Georgetown, Town of",Stradling Pit #3,R,Route 26,Madison     ,Georgetown     ,1,1,1,1,0,1,Sand and Gravel,06/02/1986,,,,42.775069999999999,-75.724630000000005,AGRI,0,No,02/21/2008 12:00:00 AM,UCR ,
70415,"Chenango, Town of",Bertoni Mine,N, ,Broome      ,Chenango       ,0,0,0,0,0,1,Sand and Gravel,05/02/1980,,,,,,,0,No,02/24/2004 12:00:00 AM,UC  ,
70762,"Stevens, Mark",Beebe Farm,N,"289 Owego Road, Candor, NY, 13743",Tioga       ,Candor         ,1,1,1,1,0,1,Sand and Gravel,10/12/1995,,,,,,WETL,0,No,04/01/2003 12:00:00 AM,UC  ,
80368,"Van Etten, Town of",,R,"Waverly Street, Van Etten, NY, 14889",Chemung     ,Van Etten      ,3,0,3,3,0,1,Sand and Gravel,,,10/03/1986,,42.221469999999997,-76.561070000000001,GRAS,0,No,04/27/2007 12:00:00 AM,UCR ,
90433,Java Materials Inc,Hackett Pit,R,South Of Rt. 78 And Java Lake Road Intersection,Wyoming     ,Java           ,53,36,10,10,0,1,Sand and Gravel,06/01/1990,06/27/2013,05/31/2018,05/19/2016,42.644959999999998,-78.339039999999997,AGRI,0,No,05/19/2016 12:00:00 AM,UCR ,
80422,Wayne County Highway Dept,,R,"7227 Rt 31, Lyons, NY, 14489",Wayne       ,Galen          ,0,0,0,0,0,1,Glacial Till   ,,,,,43.039760000000001,-76.938389999999998,,0,No,05/01/2007 12:00:00 AM,UCR ,
90152,"Fasano, Joseph",Alfred Shale Pit,N,South Side Of Rt. 244;  700' West Of Sherman Road Intersection;  South Side Of Creek.,Allegany    ,Alfred         ,0,3,3,3,0,1,Shale          ,,,,08/01/2001,42.266669999999998,-77.765519999999995,R/C,0,No,01/15/2004 12:00:00 AM,C   ,
80395,R C Billings Inc,,R,"320 E. Washington St, Bath, NY, 14810 0132",Yates       ,Potter         ,0,0,8,8,0,1,Sand and Gravel,,,04/27/1985,,42.691220000000001,-77.138390000000001,GRAS,0,No,05/01/2007 12:00:00 AM,UCR ,
80681,R L Callahan Inc,Beaver Dams Pit,N,"County Road 20, Town of Dix",Schuyler    ,Dix            ,89,11.5,1,0,1,1,Sand and Gravel,02/02/1994,,,,,,OTH,0,No,05/27/2005 12:00:00 AM,UC  ,
90188,"Kaefer, Alfred F",Kaefer Gravel Pit,A,8485 Falls Road,Erie        ,Colden         ,70,12.3,12.3,8.8,3.5,1,Sand and Gravel,12/31/1980,05/15/2013,12/31/2017,08/22/2018,42.693159999999999,-78.677049999999994,GRAS,6600,No,10/17/2018 12:00:00 AM,UC  ,
60971,R G King General Construction Inc,Thomas Mine,R,"27500 County Rte 89, Lorraine, NY, 13659",Jefferson   ,Ellisburg      ,19,4.9,4.9,4.9,0,1,Sand and Gravel,01/07/2000,07/12/2010,07/01/2015,07/08/2011,43.721769999999999,-76.067250000000001,GRAS,0,No,07/14/2011 12:00:00 AM,UCR ,
80411,Nory Construction Company Inc,,R,"248 Beull Rd., Rochester, NY, 14624",Monroe      ,Sweden         ,11,0,11,11,0,1,Glacial Till   ,,,08/16/1985,,43.20326,-77.898030000000006,AGRI,0,No,04/30/2007 12:00:00 AM,UCR ,
60660,"Wright, Robert",,N,"Box 309, Pine Grove Road, Herkimer, NY, 13350",Herkimer    ,Herkimer       ,0,0,0,0,0,1,Sand and Gravel,,,01/01/1901,,43.039270000000002,-74.916600000000003,GRAS,2000,No,03/28/2003 12:00:00 AM,UC  ,
80104,"Macedon, Town of",,N,"7 Center Street, Macedon, NY, 14502 0882",Wayne       ,Macedon        ,0,0,0,0,0,1,Sand and Gravel,,,,,43.064010000000003,-77.250799999999998,,0,No,05/01/2007 12:00:00 AM,UC  ,
60463,"Philadelphia, Town of",,R,"Town Of Philadelphia, Philadelphia, NY, 13678",Jefferson   ,Philadelphia   ,0,0,1,1,0,1,Sand and Gravel,,,08/31/1988,,44.147759999999998,-75.68186,GRAS,0,No,03/28/2003 12:00:00 AM,UCR ,
80680,Wayne County Highway Dept,Orbaker Pit,A,"7227 Rte 31, Lyons, NY, 14489",Wayne       ,Arcadia        ,12,8,8,0,8,2,Sand and Gravel,10/26/1994,10/11/2017,10/10/2022,02/11/2020,43.064259999999997,-77.111900000000006,AGRI,0,No,01/03/2011 12:00:00 AM,UC  ,
40760,"Hulbert, Jerald",Readburn Hill Quarry,N,"48 High Street, Walton, NY, 13856",Delaware    ,Tompkins       ,5,5,1.53,0,1.53,1,Bluestone      ,01/10/2000,,,06/17/2015,42.076799999999999,-75.201800000000006,GRAS,9245,No,10/17/2016 12:00:00 AM,C   ,
50565,Finch Pruyn & Co Inc,Trout Pond Mine,R,2 mi. northwest of Tahawus Rd./Boreas Rd. intersection by private logging road.,Essex       ,Newcomb        ,30726,25,3,3,0,1,Sand and Gravel,05/02/1989,07/29/2002,05/03/2007,07/19/2007,43.975360000000002,-74.033690000000007,GRAS,0,No,08/08/2007 12:00:00 AM,UCR ,
30045,Rieger Sand & Gravel,,R,"8573 Route 97, Callicoon, NY, 12723",Sullivan    ,Cochecton      ,62,5,5,5,0,1,Sand and Gravel,06/04/1990,04/26/2000,04/26/2005,06/14/2016,41.721217000000003,-75.046417000000005,GRAS,0,No,02/14/2017 12:00:00 AM,UCR ,
50420,Pallette Stone Corp,Abbey Mine,R, ,Saratoga    ,Moreau         ,72,6,6,6,0,1,Sand and Gravel,09/29/1987,12/06/2004,11/04/2009,10/29/2007,43.223669999999998,-73.716260000000005,R/C,0,No,11/05/2007 12:00:00 AM,UCR ,
60856,V S Virkler & Son Inc,East Martinsburg,A,"West on Whitaker Rd, 1200ft West off NYS Rte 12",Lewis       ,Martinsburg    ,160.7,79.7,58.2,0,58.2,5,Limestone      ,08/29/1994,01/24/2020,01/01/2025,05/08/2018,43.743267000000003,-75.436451000000005,,604664,No,11/13/2018 12:00:00 AM,C   ,
70751,"New Haven, Town of",Sturtz Mine -  Co. Route 51,R,"800' south of Rt. 104, east side of Rt. 51",Oswego      ,New Haven      ,6,1,1,1,0,1,Sand and Gravel,12/12/1996,04/21/1997,05/01/2002,07/18/2006,43.474829999999997,-76.359200000000001,GRAS,0,No,07/19/2006 12:00:00 AM,UCR ,
60783,Aluminun Company Of America,,R,"P. O. Box 150, Massena, NY, 13662",St. Lawrence ,Massena        ,3200,35,35,35,0,1,Clay           ,05/29/1992,05/29/1992,05/31/1997,,44.960949999999997,-74.880039999999994,GRAS,70000,No,03/28/2003 12:00:00 AM,UCR ,
70012,Lehigh Portland Cement Co,Alpha Portland Cement Company - Gates Rd,R,"P. O. Box 117, Cementon, NY, 12415 0011",Onondaga    ,Dewitt         ,4,8,4,4,0,1,Shale          ,,04/14/1981,03/31/1984,,42.986269999999998,-76.043040000000005,AGRI,10000,No,03/31/2003 12:00:00 AM,CR  ,
60893,Jefferson County Highway Dept,Eckert Mine,R,"21897 County Road 190, Watertown, NY, 13601",Jefferson   ,Orleans        ,4,4,4,4,0,1,Sand and Gravel,07/05/1995,07/05/1995,07/01/1998,04/10/2001,44.212649999999996,-75.95026,GRAS,0,No,03/31/2003 12:00:00 AM,UCR ,
90543,Chaffee Aggregates Inc,Chaffee Aggregates Mine,R,South Of Rt. 39;  Between Johnson Corners-Sardinia Road And Rt. 16.,Erie        ,Sardinia       ,184,111,11,11,0,1,Sand and Gravel,12/31/1991,12/21/1999,12/31/2004,09/23/2004,42.534260000000003,-78.501940000000005,AGRI,0,No,09/24/2004 12:00:00 AM,UCR ,
40053,A Colarusso & Son Inc,Fabiano Pit,T,"PO Box 302, Newman Road, HUDSON, NY, 12534  ",Columbia    ,Greenport      ,78,78,39.6,1,38.6,5,Sand and Gravel,04/25/1978,01/10/2012,01/09/2017,07/02/2014,42.203290000000003,-73.790270000000007,GRAS,0,No,10/31/2014 12:00:00 AM,UC  ,
70740,Syracuse Sand & Gravel LLC,"Black Creek Road Mine,Black Creek Road",A,"South of Black Creek rd. and Caughdenoy intersection, east side",Onondaga    ,Clay           ,59,59,59,13,46,5,Clay           ,02/29/1996,06/15/2016,06/14/2021,06/13/2019,43.258519999999997,-76.199619999999996,LAKE,242000,No,10/09/2015 12:00:00 AM,UC  ,
60113,"Mason, Carl",,R,"Box 109, Rd # 1, Cape Vincent, NY, 13618",Jefferson   ,Cape Vincent   ,2,0,2,2,0,1,Sand and Gravel,,,07/31/1989,07/09/1987,44.199950000000001,-76.194159999999997,GRAS,1500,No,03/27/2003 12:00:00 AM,UCR ,
40907,Greene County Soil & Water Conservation District,Holden Stream Restoration Project,X,"1,500 ft west of Ashland on Route 23",Greene      ,Ashland        ,3,3,3,0,3,1,Sand and Gravel,06/11/2012,,,06/09/2012,42.293353000000003,-74.354533000000004,OTH,0,No,12/01/2016 12:00:00 AM,UC  ,
60115,Cranesville Block Co Inc,Antwerp Mine,A,"100 feet of Route 11 and 2,000 north of the intersection of Route 11 and Fox Ranch Rd",Jefferson   ,Antwerp        ,185,66,59.1,0,59.1,5,Sand and Gravel,08/25/1975,04/10/2018,03/01/2023,05/16/2019,44.253306000000002,-75.587795999999997,GRAS,314693,No,04/12/2018 12:00:00 AM,UC  ,
80477,Steuben County,,R,"117 East Steuben St., Bath, NY, 14810 0163",Steuben     ,Bath           ,0,0,25,25,0,1,Clay           ,,,10/31/1989,,42.320070000000001,-77.383600000000001,LAKE,0,No,04/01/2003 12:00:00 AM,UCR ,
80010,K & R Day Trucking Inc,WNYC Pit #2,A,"Route 20, Alexander",Genesee     ,Alexander      ,35.34,24,15.8,5.4,10.4,3,Sand and Gravel,04/08/1975,06/27/2018,06/26/2023,01/07/2020,42.902659999999997,-78.221940000000004,GRAS,55046,No,05/16/2006 12:00:00 AM,UC  ,
80639,Nory Construction Company Inc,Graybill Rd Site,R,"248 Buell Road, Rochester, NY, 14624 0316",Wayne       ,Lyons          ,28,14,14,14,0,1,Sand and Gravel,08/10/1992,08/10/1992,08/10/1995,,43.058619999999998,-76.976740000000007,GRAS,0,No,04/01/2003 12:00:00 AM,UCR ,
70852,Vickery Construction Inc,Whitaker Road Topsoil Mine,R,"800 feet north of Black Creek Road, off Whitacker Rd. or Rt.176, east side",Oswego      ,Volney         ,243,5,5,5,0,1,Topsoil        ,02/03/2003,10/14/2003,10/14/2008,06/20/2013,43.407870000000003,-76.400859999999994,,0,No,06/26/2013 12:00:00 AM,UCR ,
80071,Don C Russo S & G,,N,"120 East Main St., Rochester, NY, 14604 0169",Monroe      ,Mendon         ,0,0,10,0,10,2,Sand and Gravel,,,,,43.001260000000002,-77.503420000000006,,0,No,04/30/2007 12:00:00 AM,UC  ,
80077,B R Dewitt Inc,Clifton Springs Gp-11,R,"6895 Ellicott Street, Pavillion, NY, 14525 0961",Ontario     ,Manchester     ,5,28,5,5,0,1,Sand and Gravel,,06/12/1995,06/12/1996,,42.974159999999998,-77.141199999999998,GRAS,24600,No,04/01/2003 12:00:00 AM,UCR ,
50393,The Penczek & Son Construction Corp,Rogers mine,R,northwest of the intersection of Route 122 and 30,Franklin    ,Constable      ,1,0,1,1,0,1,Sand and Gravel,04/19/1987,,,,44.929650000000002,-74.303030000000007,GRAS,0,No,04/06/2007 12:00:00 AM,UCR ,
40742,Devonian Stone Of New York Inc,Marvin Hollow Quarry,R,"502 Atwell Hill Rd., Windsor, NY, 13865",Delaware    ,Walton         ,83,5.7,5.7,5.7,0,1,Bluestone      ,01/26/2000,08/09/2005,12/22/2006,06/14/2011,42.160690000000002,-75.110969999999995,GRAS,0,No,06/15/2011 12:00:00 AM,CR  ,
60587,"Goodrow, Lucian",,N,"Route 2, Box 104, Winthrop, NY, 13697 0962",St. Lawrence ,Stockholm      ,0,0,5,0,5,1,Sand and Gravel,,,01/01/1901,,44.800249999999998,-74.837639999999993,GRAS,10000,No,03/28/2003 12:00:00 AM,UC  ,
40090,Waste Recovery Enterprises LLC,Valley View Mine,R,Valley View Road near NYS RTE 7,Otsego      ,Unadilla       ,52.1,52.1,52.1,52.1,0,1,Sand and Gravel,10/25/1979,07/01/2016,08/31/2017,10/06/2016,42.322679999999998,-75.403919999999999,GRAS,0,No,06/05/2017 12:00:00 AM,UCR ,
90287,Sundlov Construction Inc,Aber Pit,A,West Side Of Fox Road;  North Of Randolph Road.,Chautauqua  ,North Harmony  ,122,27,15.5,8.9,6.6,2,Sand and Gravel,09/26/1984,09/03/2014,06/30/2019,04/28/2020,42.092559999999999,-79.477369999999993,AGRI,51510,No,03/30/2012 12:00:00 AM,UC  ,
90484,A L Blades & Sons Inc,Wilmot Pit,N,West Side Of Rt. 19a;  2400' North Of Village Of Rossburg.,Allegany    ,Hume           ,0,2,0,0,0,1,Sand and Gravel,05/12/1989,05/12/1989,05/12/1990,,42.503059999999998,-78.065830000000005,AGRI,0,No,01/26/2004 12:00:00 AM,UC  ,
60942,Tuscarora Construction Co Inc,Lewis Mine,R,"4530 Us Route 11, Pulaski, NY, 13142",Lewis       ,Lewis          ,60,4,4,4,0,1,Sand and Gravel,05/15/1998,07/09/1998,05/01/2003,,43.458680000000001,-75.592939999999999,GRAS,8000,No,03/31/2003 12:00:00 AM,UCR ,
90362,"Giardini, Robert J",Giardini Borrow Pit,A,Nw of Nine Mile Road And Chipmunk Road Intersection,Cattaraugus ,Carrollton     ,50,25.7,25.7,24.7,1,1,Sand and Gravel,05/30/1986,09/03/2019,09/02/2024,08/23/2019,42.084359999999997,-78.599350000000001,LAKE,5266,No,09/04/2019 12:00:00 AM,UC  ,
70984,Broome County Department of Aviation,Greater Binghamton Airport RW 34,X,2534 Airport Road (borrow areas north of Commercial Drive),Broome      ,Maine          ,892.5,24.51,24.51,0,24.51,4,Sand and Gravel,09/01/2011,,,,42.201779999999999,-75.978620000000006,GRAS,0,No,08/30/2011 12:00:00 AM,UC  ,
61132,"Waddington, Town of",Crites Sand Pit,A,"West of County Route 44, Chamberlain Corners",St. Lawrence ,Madrid         ,40.8,8.7,5,0,5,1,Sand and Gravel,10/15/2015,10/14/2015,10/01/2020,04/15/2020,44.818992000000001,-75.082058000000004,GRAS,0,No,09/15/2017 12:00:00 AM,UC  ,
50339,Adirondack Ind Construction Co Inc,Johnson Pit,A,"End of Pitt Lane, west off NY Rt 9n, 1 mi north of Corinth (V).",Saratoga    ,Corinth        ,32,21.5,21.5,6.4,15.1,3,Sand and Gravel,04/15/1985,06/04/2018,06/03/2023,07/09/2019,43.257869999999997,-73.842070000000007,GRAS,59000,No,08/21/2018 12:00:00 AM,UC  ,
70178,Whitehead Brothers Company,Mexico Bay #1 - Deer Creek Marsh,N,"P.O. Box 259, Leesburg, Nj, 08327 0025",Oswego      ,Richland       ,1,1,1,1,0,1,Industrial Sand,05/18/1976,,,,43.588169999999998,-76.198750000000004,OTH,5000,No,03/31/2003 12:00:00 AM,UC  ,
50958,Rabideau Brothers Excavating LLC,Rabideau Bros. Excavating,R,on the west-side of Wood Falls Road,Clinton     ,Mooers         ,128,5,4,4,0,1,Sand and Gravel,11/24/2009,11/24/2009,11/23/2014,10/08/2014,44.943040000000003,-73.645589999999999,GRAS,0,No,11/03/2014 12:00:00 AM,UCR ,
40705,Delaware County DPW,Chase Brook Borrow Pit,R,"PO Box 311, Delhi, NY, 13753  ",Delaware    ,Walton         ,2,2,2,2,0,1,Sand and Gravel,08/28/1996,01/11/2002,01/11/2005,05/28/2003,42.104689999999998,-75.178510000000003,GRAS,0,No,05/29/2003 12:00:00 AM,UCR ,
80085,"Barrington, Town of",,N,"Rd 2, Penn Yan, NY, 14527 0980",Yates       ,Starkey        ,0,0,0,0,0,1,Sand and Gravel,,,,,42.532670000000003,-76.93938,,0,No,01/04/2018 12:00:00 AM,UC  ,
70164,Midstate Minerals Inc,Limeledge Quarry,R,Limeledge Road,Onondaga    ,Camillus       ,32,25,4,4,0,1,Limestone      ,07/31/1979,06/25/1999,06/01/2004,05/28/2004,43.018900000000002,-76.366010000000003,OTH,0,No,10/11/2006 12:00:00 AM,CR  ,
70027,Cayuga Crushed Stone Inc,Portland Point Quarry,A,"Portland Point Road, north and south side",Tompkins    ,Lansing        ,323,126,126,109.5,16.5,3,Limestone      ,04/01/1975,07/21/2015,07/20/2020,10/25/2019,42.533270000000002,-76.521360000000001,GRAS,107000,No,08/03/2009 12:00:00 AM,C   ,
70102,Riverside Sod Farm LLC,Riverside Sod Farm Mine,A,"West side 17-C, south of Kinney Road",Tioga       ,Owego          ,66.9,51.9,10.6,0,10.6,3,Topsoil        ,07/30/1976,01/14/2016,01/13/2021,03/26/2019,42.075670000000002,-76.150450000000006,OPEN,37000,No,12/06/2010 12:00:00 AM,UC  ,
60077,Torrington Industries,Watertown Sand And Stone,R,"P. O. Box 269, Glens Falls, NY, 12801 0026",Jefferson   ,Watertown      ,89,89,48,48,0,1,Sand and Gravel,03/27/1977,01/29/1996,04/01/1999,10/25/2018,43.94406,-75.877939999999995,OTH,0,No,10/25/2018 12:00:00 AM,UCR ,
90692,Walck Bros Agricultural Services Inc,Boulder Springs Project,R,South Side Of Bowen Road;  Between Shaffer And Riddle Roads,Niagara     ,Lockport       ,36,19,19,19,0,1,Clay           ,06/12/2000,06/12/2000,12/31/2003,09/14/2011,43.114960000000004,-78.625550000000004,LAKE,0,No,10/31/2011 12:00:00 AM,UCR ,
70576,"Dawson, Barbara",Dawson Sand And Gravel,R,"Rd #2 Clark Rd, Red Creek, NY, 13143 0980",Cayuga      ,Victory        ,245,42,8,8,0,1,Sand and Gravel,08/28/1989,07/13/1993,02/23/1998,,43.234180000000002,-76.699150000000003,IND,0,No,03/31/2003 12:00:00 AM,UCR ,
40005,Schoharie County DPW,Forsell Mine,R,"Box 249, Schoharie, NY, 12157 0024",Schoharie   ,Gilboa         ,0,15,15,15,0,1,Sand and Gravel,,,03/18/1991,,42.462679999999999,-74.354990000000001,GRAS,0,No,03/21/2003 12:00:00 AM,UCR ,
51037,Foxrun Development Corp LLC,Foxrun Construction Co.,A,on east-side of Fox Run Road and south of Mitchell Hill Road,Essex       ,Lewis          ,24.43,4.8,4.8,0,4.8,1,Sand and Gravel,04/23/2013,04/23/2013,09/30/2017,02/25/2020,44.256900000000002,-73.581400000000002,GRAS,17000,No,06/27/2019 12:00:00 AM,UC  ,
80355,The Lane Construction Corp,,R,"965 E Main St, Meridan, Ct, 06450",Steuben     ,Corning        ,7,0,7,7,0,1,Glacial Till   ,,,03/29/1986,,42.11627,-77.012990000000002,GRAS,0,No,05/01/2007 12:00:00 AM,UCR ,
70054,Northern Aggregates Inc,Pederson-Keller Site,R,"Rd #6, Fulton, NY, 13069 0980",Oswego      ,Volney         ,0,34,34,34,0,1,Sand and Gravel,,,05/02/1987,,43.333399999999997,-76.382990000000007,AGRI,0,No,03/31/2003 12:00:00 AM,UCR ,
90298,"Cowen, Warren L",Cowen Gravel Pit #2,R,"5164 Route 62, Conewango Valley, NY, 14726",Cattaraugus ,Conewango      ,54,12,2,2,0,1,Sand and Gravel,08/16/1984,07/02/2002,07/02/2007,06/09/2008,42.217059999999996,-79.02346,AGRI,0,No,06/10/2008 12:00:00 AM,UCR ,
30221,"Shawangunk, Town of",,R,"P O Box 247, Wallkill, NY, 12589 0024",Ulster      ,Shawangunk     ,0,4,4,4,0,1,Sand and Gravel,,,10/19/1985,,41.737990000000003,-74.185490000000001,GRAS,0,No,02/02/2017 12:00:00 AM,UCR ,
60073,Ludlow's Sand & Gravel Co Inc,Ludlow Sand & Gravel,A,"Holman City Road, 900 feet south of the Kehoe/Holman City intersection",Oneida      ,Paris          ,75,58.5,17.7,0,17.7,3,Sand and Gravel,04/28/1975,10/24/2018,10/23/2023,08/15/2018,42.964123000000001,-75.224885,GRAS,93000,No,08/21/2019 12:00:00 AM,UC  ,
61110,"Croghan, Town of",Croghan Highway Department Pit,A,"West of NYS Rte 812, 675ft North of Monnat School Rd",Lewis       ,Croghan        ,138.5,4.4,4.4,0,4.4,1,Sand and Gravel,03/12/2012,07/18/2017,07/01/2022,06/24/2019,43.931624999999997,-75.392712000000003,GRAS,0,No,07/08/2019 12:00:00 AM,UC  ,
60458,Green Island Construction Co Inc,,R,"P. O. Box 306, Glenmont, NY, 12077 0030",St. Lawrence ,Pitcairn       ,0,0,5,5,0,1,Sand and Gravel,,,10/31/1986,04/12/1987,44.164760000000001,-75.303849999999997,GRAS,0,No,03/28/2003 12:00:00 AM,UCR ,
60403,Gallo Brothers Construction Inc,,R,"Rd 2, Taberg, NY, 13471 0980",Jefferson   ,Rutland        ,0,0,3,3,0,1,Sand and Gravel,,,01/01/1901,,,,GRAS,0,No,03/28/2003 12:00:00 AM,UCR ,
70565,"Graham, Mary",Graham Shale Pit,R,NYS Route 80,Onondaga    ,Tully          ,16,3,3,3,0,1,Shale          ,01/01/1987,09/01/1992,08/15/1997,09/12/1995,42.79927,-76.119550000000004,R/C,0,No,04/12/2005 12:00:00 AM,CR  ,
60301,Franzetta Inc,Route 49 Site,R,"7883 West Thomas Street, Rome, NY, 13440",Oneida      ,Rome           ,5,0,5,5,0,1,Clay           ,04/30/1989,04/30/1989,04/30/1992,10/26/1988,43.223669999999998,-75.331509999999994,GRAS,7500,No,08/20/2004 12:00:00 AM,UCR ,
50185,"Koller, Larry",Koller Pit,A,on the north-side of Pepper Hollow Road and on the east-side of I-87,Essex       ,North Hudson   ,90,26.69,15.74,10,5.74,2,Gneiss,05/26/1977,07/31/2018,04/17/2023,12/11/2019,44.016199999999998,-73.700000000000003,GRAS,16000,No,03/26/2019 12:00:00 AM,C   ,
50662,"Lashway, Leonard",Lashway Mine,R,south of SR 190 and east of Forest Road,Clinton     ,Altona         ,642,6.1,6.1,6.1,0,1,Sand and Gravel,05/17/1994,10/08/2004,03/09/2008,10/28/2011,44.877000000000002,-73.748999999999995,GRAS,0,No,04/18/2018 12:00:00 AM,UCR ,
90613,Country Side Sand & Gravel Inc,Yoder Gravel Pit,R,Sw Of Chapman Road And North East Road Intersection,Cattaraugus ,Conewango      ,135,29.5,14,14,0,1,Sand and Gravel,06/23/1994,05/08/2014,06/23/2019,07/15/2019,42.253647000000001,-79.010692000000006,AGRI,0,No,07/18/2019 12:00:00 AM,UCR ,
50535,"Helms, James A",Helms Sand And Gravel Pit,Q,"north of Mtn. View Cemetary and north-side of CR 192 and SR 86, east of Gabriels, too.",Franklin    ,Brighton       ,82,5,5,0,5,1,Sand and Gravel,10/03/1988,,,01/31/2019,44.424999999999997,-74.154600000000002,GRAS,11250,No,02/01/2019 12:00:00 AM,UC  ,
10098,Coram Materials Corp,Coram Materials,A,"416 Miller Pl-Yaphank Rd, Miller Place",Suffolk     ,Brookhaven     ,352.2,271.9,271.9,19.7,252.2,5,Sand and Gravel,12/06/1989,01/31/2018,01/30/2023,03/03/2020,40.909599999999998,-72.969549999999998,LAKE,1267141.42,No,11/26/2013 12:00:00 AM,UC  ,
50307,"Corinth, Town of",Pikes Pit,R,"600 Palmer Ave, Corinth, NY, 12822 0132",Saratoga    ,Corinth        ,0,1,1,1,0,1,Sand and Gravel,01/30/1984,01/30/1984,01/27/1987,,43.256070000000001,-73.840170000000001,GRAS,0,No,03/25/2003 12:00:00 AM,UCR ,
80155,The Lane Construction Corp,,R,"PO BOX 332, WEBSTER, NY, 14580 0033",Monroe      ,Webster        ,0,0,0,0,0,1,Sand and Gravel,,,,,43.248959999999997,-77.427319999999995,,0,No,01/04/2018 12:00:00 AM,UCR ,
60270,St Lawrence County Highway Dept,Clark Pit,R,"44 Park Street, Canton, NY, 13617 0143",St. Lawrence ,Pitcairn       ,0,5,5,5,0,1,Sand and Gravel,,,01/31/1990,02/19/1986,,,GRAS,0,No,03/28/2003 12:00:00 AM,UCR ,
70920,A J Montclair Inc,Schroeppel Pit,A,"East of Rt. 12, 500' SE of Kline Road",Oswego      ,Schroeppel     ,64.83,29.3,1.9,0,1.9,1,Sand and Gravel,10/23/2006,07/28/2014,07/27/2019,01/04/2019,43.241079999999997,-76.233810000000005,GRAS,11800,No,04/06/2011 12:00:00 AM,UC  ,
40537,Double D Development LLC,Bryant Mine NYS 82,R,NYS Rte 82,Columbia    ,Ancram         ,170,60,29.9,29.9,0,1,Sand and Gravel,08/10/1995,03/23/2016,03/22/2018,06/27/2018,42.040889999999997,-73.619770000000003,GRAS,0,No,07/11/2018 12:00:00 AM,UCR ,
30135,Phoenix Gravel Corp.,,R,"28 Hornbeck Ridge, Poughkeepsie, NY, 12603 0000",Sullivan    ,Mamakating     ,40,33,33,33,0,1,Sand and Gravel,05/25/1989,12/23/1998,12/22/2003,06/24/2003,41.58379,-74.493899999999996,GRAS,0,No,02/10/2017 12:00:00 AM,UCR ,
50938,"Holcome, William J",Hillcrest Farm Mine,R,"7761 State Route 11, Chateaugay, NY, 12920",Franklin    ,Chateaugay     ,465,4,4,4,0,1,Sand and Gravel,05/23/2002,05/23/2002,01/24/2007,11/26/2003,44.917439999999999,-74.063609999999997,AGRI,0,No,12/01/2003 12:00:00 AM,UCR ,
90302,"Lombardozzi, Gilbert",Lombardozzi Pit,N,West Side Of Mann Road;  800' North Of Griffin Road Intersection.,Chautauqua  ,French Creek   ,4,4,0,0,0,1,Sand and Gravel,,,,04/25/2003,42.080060000000003,-79.741470000000007,,0,No,01/13/2004 12:00:00 AM,UC  ,
70453,Robinson Concrete Inc,"Barrigar Gravel Pit, Route 321",R,Haul rd 200 feet sw of intersection with Rt 321 and Halfway rd.,Onondaga    ,Skaneateles    ,46,4,4,4,0,1,Sand and Gravel,01/26/1988,08/18/2004,08/18/2009,11/03/2009,43.006500000000003,-76.389799999999994,GRAS,0,No,11/18/2009 12:00:00 AM,UCR ,
70663,Lindsey Aggregates Inc,Pit #2,A,"west side County Route 6, 1/2 mile south of Stone road",Oswego      ,New Haven      ,80,24,4.9,0,4.9,1,Sand and Gravel,04/11/1992,04/23/2020,12/21/2021,03/25/2020,43.454009999999997,-76.314800000000005,GRAS,28900,No,04/07/2020 12:00:00 AM,UC  ,
60069,McConnellsville Sands & Materials Inc,Mcconnellsville Plant,A,"north & south of Wheeler Hill Rd., Plant is 1500 feet east of Bones Rd.",Oneida      ,Annsville      ,464,464,32,0,32,5,Sand and Gravel,05/02/1978,08/17/2011,08/16/2016,07/10/2019,43.279778999999998,-75.686103000000003,GRAS,180000,No,01/03/2012 12:00:00 AM,UC  ,
60037,Hanson Aggregates New York LLC,Jordanville Quarry,A,"Kingdom Road, entrance is 1/2 mile north of the Jordanville/Kingdom Road intersection",Herkimer    ,Warren         ,332,232.4,232.4,0,232.4,5,Limestone      ,05/26/1977,03/13/2019,11/23/2019,08/28/2018,42.920436000000002,-74.960471999999996,LAKE,2078000,No,12/01/2016 12:00:00 AM,C   ,
70464,"Weaver, Robert L","Pit #14- Jarrett,Co.Rt. 58",R,"Box 59a, Constantia, NY, 13044 0005",Oswego      ,Mexico         ,20,20,2,2,0,1,Sand and Gravel,12/04/1987,08/15/1989,08/11/1992,10/07/2002,43.426290000000002,-76.172049999999999,R/C,0,No,03/31/2003 12:00:00 AM,UCR ,
90680,Walck Bros Agricultural Services Inc,Dietz Property,R,South Side Of Bowen Road;  Between Shaffer And Riddle Roads,Niagara     ,Lockport       ,40,4,1,1,0,1,Clay           ,04/27/1998,01/02/2002,12/31/2006,09/14/2011,43.115659999999998,-78.625450000000001,LAKE,0,No,10/31/2011 12:00:00 AM,UCR ,
90438,"Boozel, George",Boozel Pit,R,West Side Of Mann Road;  2000' North Of Griffin Road Intersection.,Chautauqua  ,French Creek   ,60,5,5,5,0,1,Sand and Gravel,05/20/1988,04/11/1991,05/20/1994,,42.083759999999998,-79.743570000000005,AGRI,5000,No,01/28/2004 12:00:00 AM,UCR ,
70278,Apex Ready Mix Inc,Saintsville Road,N,Saintsville Road,Onondaga    ,Manlius        ,40,3,3,3,0,1,Sand and Gravel,04/22/1975,,,,,,GRAS,0,No,04/20/2005 12:00:00 AM,UC  ,
90615,The L C Whitford Co Inc,Hall Borrow Pit,R,East Side Of Rt. 16;  Behind Team Chevrolet Dealership,Cattaraugus ,Olean          ,21,11,5,5,0,1,Sand and Gravel,05/03/1994,06/11/2001,06/11/2006,07/25/2008,42.120669999999997,-78.411640000000006,GRAS,0,No,06/26/2008 12:00:00 AM,UCR ,
90288,The L C Whitford Co Inc,Moogan Pit,R,East Side Of Rt. 275;  1600' South Of Cr 20 Intersection.,Allegany    ,Friendship     ,0,4,3,3,0,1,Sand and Gravel,07/06/1984,09/17/1990,06/15/1993,,42.198770000000003,-78.141130000000004,GRAS,5000,No,01/28/2004 12:00:00 AM,UCR ,
90825,J & T Auto Salvage & Recycling,Moat,N,North Side of Balmer Road;  1.4 Miles East of Creek Road Intersection.,Niagara     ,Porter         ,54,2,0,0,0,1,Sand and Gravel,,,,05/31/2001,43.232259999999997,-78.989570000000001,OTH,0,No,01/28/2004 12:00:00 AM,UC  ,
60483,"Williams, Philip G",Newton Mine,A,"Preston Hill Road, entrance is 1/2 mile north of the California/Preston Hill Road intersection",Oneida      ,Vienna         ,283,34.5,19.5,1,18.5,3,Sand and Gravel,02/26/1986,01/04/2017,01/03/2022,06/12/2018,43.276608000000003,-75.766709000000006,GRAS,99000,No,01/05/2012 12:00:00 AM,UC  ,
90812,"Burrs, Richard",Saltvale Road,N,East Side Of East Valley Road;  Between Toal And Burke Roads.,Wyoming     ,Warsaw         ,2,2,0,0,0,1,Sand and Gravel,,,,10/22/2003,42.785559999999997,-78.106830000000002,,0,No,02/11/2004 12:00:00 AM,UC  ,
50328,Peckham Materials Corp,E. Perry Bank,A,"Southeast of SR 22, west of RR tracks, east of Battenkill River",Washington  ,Salem          ,24,11.6,11.6,0,11.6,3,Sand and Gravel,03/02/1987,01/16/2019,09/23/2023,05/07/2019,43.144340999999997,-73.359007000000005,GRAS,58000,No,05/27/2015 12:00:00 AM,UC  ,
30448,Krum & Sons Inc,Mccosco Property,R,"P.O Box 112, Youngsville, NY, 12791 0011",Sullivan    ,Fallsburgh     ,13.2,6,5,5,0,1,Sand and Gravel,09/26/1989,02/09/2016,02/08/2018,10/13/2017,41.795589999999997,-74.698700000000002,GRAS,0,No,10/19/2017 12:00:00 AM,UCR ,
90084,City Farms,Humis Soils,N,North Side of Jonew-Gifford Avenue;  3300' West of Fairmount Avenue Intersection.,Chautauqua  ,Jamestown      ,28,1,0,0,0,1,Peat           ,,,,,42.106059999999999,-79.260869999999997,,0,No,01/26/2004 12:00:00 AM,UC  ,
90423,"Thorpe, Michael & Gayle",Thorpe's Hillside Gravel,Q,North Side of Rt. 78;  At Merlau Road Intersection,Erie        ,Wales          ,113,26.6,26.6,15.3,11.3,3,Sand and Gravel,06/13/1988,07/22/2009,07/21/2014,01/23/2020,42.756700000000002,-78.506485999999995,AGRI,69016,No,01/24/2020 12:00:00 AM,UC  ,
80759,"Cameron, Town of",County Rte 22 Gravel Pit,A,"PO BOX 32, DEPOT STREET, CAMERON, NY, 14819  ",Steuben     ,Cameron        ,10,10,10,0,10,2,Sand and Gravel,08/22/2000,12/28/2015,12/27/2020,07/18/2019,42.190750000000001,-77.390270000000001,GRAS,0,No,09/13/2016 12:00:00 AM,UC  ,
80585,"Burkhardt, James",Burkhardt Pit,A,"10919 Griswold Road, Darien Center, NY, 14040 0972",Genesee     ,Darien         ,61,10,9.5,0,9.5,2,Sand and Gravel,03/22/1991,03/20/2017,03/19/2022,06/14/2019,42.884999999999998,-78.338499999999996,AGRI,52248,No,06/06/2011 12:00:00 AM,UC  ,
40396,"Schoharie, County of",,R,"PO BOX 429, SCHOHARIE, NY, 12157 0042",Schoharie   ,Middleburg     ,0,6,6,6,0,1,Sand and Gravel,,,12/31/1985,,,,GRAS,0,No,03/21/2003 12:00:00 AM,UCR ,
90160,Higgins Erectors & Haulers Inc,Phillips Pit,R,South Side Of Nichols Avenue;  1300' East Of North Portage Street Intersection.,Chautauqua  ,Westfield      ,0,10,10,10,0,1,Sand and Gravel,03/11/1980,03/11/1980,01/29/1983,,42.333759999999998,-79.583470000000005,GRAS,0,No,01/28/2004 12:00:00 AM,UCR ,
80373,Narde Paving Co Inc,Wilcox Pit,R,"56 Breesport Rd, Horseheads, NY, 14845 9526",Chemung     ,Horseheads     ,45,45,45,45,0,1,Sand and Gravel,,07/19/1988,04/27/1991,,42.187869999999997,-76.84948,AGRI,22500,No,04/27/2007 12:00:00 AM,UCR ,
80441,Waste Management of New York LLC,High Acres Mine,R,"425 Perinton Parkway, Fairport, NY, 14450 0200",Monroe      ,Perinton       ,205,18,10,10,0,1,Sand and Gravel,,10/12/1989,10/12/1992,,43.086559999999999,-77.382210000000001,AGRI,20000,No,07/29/2004 12:00:00 AM,UCR ,
60277,Tug Hill Construction Inc,,R,"Route 1, Rodman, NY, 13682 0980",Jefferson   ,Leray          ,0,0,15,15,0,1,Topsoil        ,,,12/31/1984,,,,AGRI,5000,No,03/28/2003 12:00:00 AM,UCR ,
30584,Burton F Clark Inc,,N,"PO BOX 427 NYS RT 10, Delhi, NY, 13753  ",Ulster      ,Shandaken      ,250,0,0,0,0,1,Sand and Gravel,,,,,,,,0,No,03/21/2003 12:00:00 AM,UC  ,
70733,Syracuse Sand & Gravel LLC,Dellapenna Pit,R,"at west end of Depot Road, west of tracks",Tioga       ,Owego          ,24.8,15,9.7,9.7,0,1,Sand and Gravel,12/04/1995,04/13/2018,05/19/2023,09/11/2019,42.087269999999997,-76.153649999999999,GRAS,0,No,09/16/2019 12:00:00 AM,UCR ,
80255,The Lane Construction Corp,,R,"PO BOX 911, MERIDEN, CT, 06450 0091",Livingston  ,Avon           ,0,0,2,2,0,1,Sand and Gravel,,,10/27/1981,,42.89555,-77.682760000000002,,0,No,01/05/2018 12:00:00 AM,UCR ,
60384,"Mackin, Franklin",Bullock Pit,A,"County Route 24,  Edwards",St. Lawrence ,Edwards        ,238,22,13.3,0,13.3,3,Sand and Gravel,10/15/1985,08/30/2017,08/01/2022,08/22/2019,44.341524999999997,-75.225572,GRAS,76104,No,09/05/2018 12:00:00 AM,UC  ,
90807,Dewittville Creek,Dewittville Creek Site,N,1600' Sw Of Village Of Pleasantville;  In Creek.,Chautauqua  ,Chautauqua     ,2,0,2,0,2,1,Sand and Gravel,,,,05/22/2001,42.257959999999997,-79.435069999999996,,0,No,01/13/2004 12:00:00 AM,UC  ,
90668,"Caneadea, Town of",Genesee River Bar Mine,R,East Side Of Rt. 19;  Just South Of Village Of Caneadea,Allegany    ,Caneadea       ,5.2,5.2,5.2,5.2,0,1,Sand and Gravel,11/03/1997,11/26/2002,11/13/2007,12/14/2005,42.381770000000003,-78.15213,OTH,0,No,08/29/2005 12:00:00 AM,UCR ,
80055,A L Blades & Sons Inc,,N,"42 Broadway, Hornell, NY, 14843 0192",Steuben     ,Campbell       ,0,0,0,0,0,1,Sand and Gravel,,,,,42.225270000000002,-77.139489999999995,,0,No,04/30/2007 12:00:00 AM,UC  ,
30554,K K G Realty Corp,Hickory Ridge Site,R,"P.O. Box 519, New Paltz, NY, 12561",Ulster      ,New Paltz      ,168,2,2,2,0,1,Shale          ,12/05/1994,02/03/2000,02/03/2005,08/20/2003,41.761850000000003,-74.103390000000005,GRAS,0,No,01/31/2017 12:00:00 AM,CR  ,
60505,Gallo Brothers Construction Inc,,R,"Box 74, Boonville, NY, 13309 0007",Jefferson   ,Adams          ,5,0,5,5,0,1,Sand and Gravel,,,08/31/1987,08/25/1986,43.846960000000003,-76.102149999999995,AGRI,0,No,03/28/2003 12:00:00 AM,UCR ,
60581,Mayday Gravel Products,Henry Pit,R,"P. O. Box 541, Ogdensburg, NY, 13669 0054",St. Lawrence ,Lisbon         ,98,6,5,5,0,1,Sand and Gravel,,,05/31/1994,04/13/1988,44.678559999999997,-75.380859999999998,GRAS,6000,No,03/28/2003 12:00:00 AM,UCR ,
50466,"Clute, John F",,R,"692 Route 29 E., Saratoga Springs, NY, 12866 0540",Saratoga    ,Saratoga       ,203,3,3,3,0,1,Sand and Gravel,07/13/1987,09/14/1998,07/13/2003,07/22/2004,43.090558999999999,-73.680798999999993,AGRI,0,No,10/31/2006 12:00:00 AM,UCR ,
80007,Yates County Highway Dept,Guyanoga Road Cr 29,R,"939 Rt. 14a, Penn Yan, NY, 14527",Yates       ,Jerusalem      ,31,31,31,31,0,1,Sand and Gravel,,11/14/2000,11/14/2002,07/30/2002,42.630099999999999,-77.168899999999994,GRAS,0,No,07/31/2009 12:00:00 AM,UCR ,
70767,Cesasaro Roma & Roma LLC,Route 17-C,N,Route 17-C,Tioga       ,Owego          ,35,30,9,0,9,2,Sand and Gravel,07/31/1997,,,,42.092179999999999,-76.211240000000004,AGRI,40000,No,04/20/2005 12:00:00 AM,UC  ,
50609,"Salvione, Joseph C",Salvione Pit,R,"P. O. Box 962, Gloversville, NY, 12078 0240",Fulton      ,Mayfield       ,12,5,3,3,0,1,Sand and Gravel,04/23/1990,09/12/1993,04/23/1998,07/11/1996,43.075569999999999,-74.248980000000003,GRAS,6500,No,03/25/2003 12:00:00 AM,UCR ,
90487,"New Hudson, Town of",New Hudson Gravel Pit,R,North Side of Spring Valley Road;  Behind Town Barns.,Allegany    ,New Hudson     ,5,3,3,3,0,1,Sand and Gravel,01/18/1991,07/30/2014,01/18/2019,09/13/2016,42.265970000000003,-78.21293,AGRI,0,No,09/20/2016 12:00:00 AM,UCR ,
30635,"Shultz, Lee",Old Route 6,A,Old Rte 6 & Rte 6,Putnam      ,Carmel         ,10.3,7.8,5.5,0,5.5,2,Stone          ,11/07/2011,11/21/2017,11/20/2022,04/26/2019,41.417050000000003,-73.666839999999993,R/C,49400,No,11/08/2011 12:00:00 AM,C   ,
60578,Waste Management Of North America Inc,Mohawk Valley Landfill Pit,R,"425 Perinton Pkwy, Fairport, NY, 14450 0000",Herkimer    ,Frankfort      ,25,13,13,13,0,1,Clay           ,01/01/1989,08/29/1997,08/31/2002,06/03/2003,43.070070000000001,-75.125900000000001,GRAS,0,No,05/08/2003 12:00:00 AM,UCR ,
61135,Perras Excavating Inc,Brouse Road Mine,R, ,St. Lawrence ,Norfolk        ,75,4.8,4.8,4.8,0,1,Sand and Gravel,06/20/2016,06/20/2016,06/01/2021,09/28/2016,44.885759999999998,-74.889060000000001,LAKE,0,No,08/01/2017 12:00:00 AM,UCR ,
30549,Shelby & Associates,Kenilworth Subdivision,R,"229a Harrison Avenue, Harrison, NY, 10528",Westchester ,Somers         ,227,2,2,2,0,1,Sand and Gravel,03/14/1996,03/14/1996,03/14/1999,09/05/2000,41.319400000000002,-73.705640000000002,R/C,5000,No,02/16/2017 12:00:00 AM,UCR ,
40704,Cobleskill Stone Products Inc,Vetrone/Tar Hollow Rd. Pit,R,"PO Box 220, COBLESKILL, NY, 12043  ",Delaware    ,Hancock        ,5,5,5,5,0,1,Sand and Gravel,09/01/1996,10/08/2002,10/08/2003,06/17/2003,41.975290000000001,-75.213710000000006,GRAS,0,No,06/18/2003 12:00:00 AM,UCR ,
60899,"Ellisburg, Town of",Bettinger Mine,A,"800 feet north of Balch Road, 1,500 feet east of US Rte 11",Jefferson   ,Ellisburg      ,93.4,21.8,21.8,0,21.8,4,Sand and Gravel,11/14/1995,04/05/2016,04/01/2021,05/23/2019,43.693520999999997,-76.057421000000005,GRAS,0,No,05/07/2018 12:00:00 AM,UC  ,
60107,Jefferson County Highway Dept,,R,"P.O. Box 127, Watertown, NY, 13601 0012",Jefferson   ,Antwerp        ,0,0,2,2,0,1,Sand and Gravel,,,01/01/1901,09/27/1978,,,GRAS,0,No,03/27/2003 12:00:00 AM,UCR ,
30409,"Segalla, John A",Curtis Wright Farm,R,"PO BOX C, AMENIA, NY, 12501 0039",Dutchess    ,Amenia         ,46,38,38,38,0,1,Sand and Gravel,,,06/06/1991,,41.600549999999998,-73.715620000000001,R/C,8000,No,01/11/2017 12:00:00 AM,UCR ,
70931,"Ford, Lynn",Cowan Road Mine,N,"East off Cowan Rd., just north of the Cayuga County boundary.",Oswego      ,Hannibal       ,20,0,1,0,0,1,Sand and Gravel,07/20/2007,,,,43.255848,-76.551873999999998,,0,No,12/01/2016 12:00:00 AM,UC  ,
70425,"Adsit, Robert C",Adsit Mine,R,"Rd #1 Box 202, Sherburne, NY, 13460 0978",Chenango    ,North Norwich  ,90,3,1,1,0,1,Sand and Gravel,08/12/1986,09/10/1993,09/10/1998,,42.645569999999999,-75.487319999999997,AGRI,5000,No,10/25/2004 12:00:00 AM,UCR ,
80434,Austin Construction LLC,Cornell Pit,R,"5054 County Road 125, Campbell, NY, 14821 0000",Steuben     ,Campbell       ,42.6,19.6,10,10,0,1,Sand and Gravel,11/08/1985,06/17/2008,06/16/2013,06/14/2012,42.222569999999997,-77.222300000000004,GRAS,0,No,06/20/2012 12:00:00 AM,UCR ,
50566,"Van Patten, Robert",,R,"PO BOX 426 BARNEY RD.CLUBHOUSE, CLIIFTON PARK, NY, 12065 0042",Saratoga    ,Clifton Park   ,0,0,0,0,0,1,Sand and Gravel,04/24/1992,,04/24/1992,,42.919080000000001,-73.820570000000004,R/C,0,No,03/25/2003 12:00:00 AM,UCR ,
71006,Christopher J Construction LLC,Scriba Topsoil,V,"Hall Road, near Churchill Road",Oswego      ,Scriba         ,43.27,21.4,0,0,0,1,Topsoil        ,08/16/2016,08/16/2016,08/15/2021,11/20/2018,43.449399999999997,-76.465900000000005,GRAS,0,No,11/20/2018 12:00:00 AM,UC  ,
80291,Parkway Mobile Homes Inc,Parkway S & G,R,"6477 Begole Road, Mount Morris, NY, 14510 0976",Livingston  ,Mount Morris   ,41,14,14,14,0,1,Sand and Gravel,,06/30/2000,06/30/2005,01/24/2002,42.72916,-77.902330000000006,GRAS,12000,No,05/01/2007 12:00:00 AM,UCR ,
80190,Pilon Construction Co Inc,Pilon Mine,A,"13205 Rt 31 West, Albion, NY, 14411",Orleans     ,Albion         ,6,6,4,0,4,1,Sandstone      ,06/19/1976,06/11/2019,06/10/2024,02/04/2020,43.2348,-78.267300000000006,GRAS,20430,No,10/11/2006 12:00:00 AM,C   ,
60873,Lewis County Highway Dept,Duncan Site,R,"5427 Trinity Ave, Lowville, NY, 13367",Lewis       ,Turin          ,17,7,7,7,0,1,Sand and Gravel,09/01/1994,07/06/1998,07/01/2003,08/27/2003,43.703270000000003,-75.404920000000004,GRAS,0,No,08/29/2003 12:00:00 AM,UCR ,
70533,Younglawn Gravel Mine,Cow Barn Mine,N,"2693 Nys Rt 13,  Truxton",Cortland    ,Homer          ,4,4,4,4,0,1,Sand and Gravel,03/18/1991,,,,42.668799999999997,-76.099130000000002,AGRI,0,No,02/24/2004 12:00:00 AM,UC  ,
70577,"Aldrich, Lyle R",Scipio Gravel,R,"Rd #4 Box 90, Moravia, NY, 13118 0931",Cayuga      ,Scipio         ,130,4,4,4,0,1,Sand and Gravel,03/20/1990,03/31/1993,03/20/1996,,42.766170000000002,-76.488259999999997,AGRI,5000,No,03/31/2003 12:00:00 AM,UCR ,
90998,"Allen, Town of",Town of Allen Gravel Mine,A,"CR 26 Near Van Allen Road, Belfast, NY",Allegany    ,Belfast        ,20,12,10.6,0,10.6,3,Sand and Gravel,08/05/2008,07/09/2013,08/05/2018,03/11/2020,42.313800000000001,-78.082499999999996,AGRI,0,No,02/10/2020 12:00:00 AM,UC  ,
80419,"Billings, Laverne",,N,"320 E. Washington St, Bath, NY, 14810 0132",Steuben     ,Bath           ,0,0,0,0,0,1,Sand and Gravel,,,,,42.361269999999998,-77.291899999999998,,0,No,01/05/2018 12:00:00 AM,UC  ,
51043,Zebra-Tech LLC,Middle Road Farmhouse Topsoil Mine,R,on the west-side of Middle Road (CR22M) and north of Coonrod Road,Essex       ,Willsboro      ,73.74,17.35,17.35,17.35,0,1,Topsoil        ,10/29/2012,10/29/2012,10/28/2017,07/02/2014,44.341749999999998,-73.833330000000004,GRAS,0,No,07/15/2014 12:00:00 AM,UCR ,
50772,"Elizabethtown, Town of",Elizabethtown Sand & Gravel Pit,A,at the very west-end of Bronson Way and on the west-side of Roscoe Road,Essex       ,Lewis          ,800,5,5,0,5,1,Sand and Gravel,06/01/1995,05/23/2015,05/22/2020,08/22/2019,44.227499999999999,-73.634900000000002,GRAS,0,No,11/16/2012 12:00:00 AM,UC  ,
40484,Montgomery County Dept Of Solid Waste Mg,Stone Arabia mine,R,"Indian Road, south side, east of intersection with Eaker Road",Montgomery  ,Palatine       ,4,4,4,4,0,1,Sand and Gravel,,,11/23/1991,,42.969769999999997,-74.492080000000001,GRAS,0,No,04/27/2007 12:00:00 AM,UCR ,
60508,"Lenart, Steve",Lenart Sand & Gravel Pit,A,"West side of Route 12, across the road from the DOT Garage",Oneida      ,Boonville      ,14,7.8,5.6,0.4,5.2,2,Sand and Gravel,01/01/1986,03/20/2019,03/19/2024,08/23/2016,43.420504999999999,-75.230101000000005,GRAS,29000,No,01/03/2012 12:00:00 AM,UC  ,
70537,Pinney's Gravel Bank Inc,Weeks Road Mine -  Weeks Road,R,"24 Ross Road, Lansing, NY, 14882 0880",Cayuga      ,Locke          ,80,9,6,6,0,1,Sand and Gravel,02/09/1990,08/29/1990,03/30/1992,,42.623370000000001,-76.458060000000003,AGRI,5000,No,03/31/2003 12:00:00 AM,UCR ,
80765,Cold Spring Construction Company,Novidor Borrow Pit,R,"3 Jackson Street, Akron, NY, 14001",Chemung     ,Chemung        ,18,4,4,4,0,1,Sand and Gravel,04/18/2000,04/18/2000,04/18/2001,06/14/2001,42.02552,-76.707639999999998,GRAS,0,No,01/08/2018 12:00:00 AM,UCR ,
90421,L W Parker Enterprises Inc,Mill Creek Gravel Pit,R,North Side of Village of Sinclairville;  South of Prospect Street;  In Creek.,Chautauqua  ,Charlotte      ,0,1,1,1,0,1,Sand and Gravel,11/01/1988,03/03/1992,11/01/1996,,42.266060000000003,-79.260570000000001,WETL,5000,No,01/28/2004 12:00:00 AM,UCR ,
80710,Crushmore LLC,Smith Gravel Pit,A,"7098 Sodus Center Road, Sodus, NY, 14551",Wayne       ,Sodus          ,187.99,139.8,37,12.25,24.75,4,Sand and Gravel,08/23/1995,02/07/2019,10/18/2020,03/27/2019,43.198360000000001,-77.042190000000005,LAKE,134158,No,06/11/2018 12:00:00 AM,UC  ,
60234,Burton F Clark Inc,,R,"P. O. Box 427, Delhi, NY, 13753 0042",Herkimer    ,Frankfort      ,0,0,0,0,0,1,Sand and Gravel,,,03/31/1981,,,,,0,No,03/28/2003 12:00:00 AM,UCR ,
50783,"Killian, Robert & Sloan, James Jr",Fort Edward Shale Pit,R,"Killian Lane, Fort Edward, NY, 12828",Washington  ,Fort Edward    ,242,10,4,4,0,1,Shale          ,04/16/1996,04/16/1996,04/15/2001,,43.274970000000003,-73.536460000000005,AGRI,0,No,03/25/2003 12:00:00 AM,CR  ,
90883,Reed,Fox Road,N,East Side Of Fox Road;  2300' North Of Randolph Road Intersection.,Chautauqua  ,North Harmony  ,5,0,3,0,3,1,Sand and Gravel,,,,08/02/2018,42.09516,-79.473569999999995,,0,No,01/13/2004 12:00:00 AM,UC  ,
40373,"Andes, Town of",,R, ,Delaware    ,Middletown     ,0,3,3,3,0,1,Sand and Gravel,,,03/20/1988,,,,GRAS,0,No,04/25/2007 12:00:00 AM,UCR ,
70909,Rucole Stone LLC,Struble Quarry #1,A,End of Marsh Pond Road,Broome      ,Sanford        ,106,24.6,10,0,10,2,Bluestone      ,04/10/2006,10/24/2019,10/24/2024,02/25/2020,42.119700000000002,-75.509299999999996,GRAS,55500,No,01/21/2015 12:00:00 AM,C   ,
80587,A L Blades & Sons Inc,Briggs Pit,R,"P.O. Box 590, Hornell, NY, 14843 0059",Steuben     ,Fremont        ,6,4,4,4,0,1,Sand and Gravel,,06/14/1990,06/14/1991,,42.430480000000003,-77.588999999999999,GRAS,0,No,04/01/2003 12:00:00 AM,UCR ,
30303,Mccombs Sand & Gravel,,R,"Box 32, Cragsmoor, NY, 12420 0003",Ulster      ,Wawarsing      ,9,9,2,2,0,1,Sand and Gravel,09/22/1988,12/17/2004,12/16/2006,08/04/2005,41.659289999999999,-74.384100000000004,R/C,0,No,01/13/2017 12:00:00 AM,UCR ,
40025,F H Stickles & Son Inc,F.H. Stickles Mine,A,"Route 9, Box 600, Livingston, NY, 12541 0999",Columbia    ,Livingston     ,148,97.9,97.9,5.6,92.3,5,Sand and Gravel,01/08/1978,09/11/2019,09/10/2024,05/06/2020,42.127290000000002,-73.79307,LAKE,698335,No,12/30/2015 12:00:00 AM,UC  ,
30383,Birchwood Development Co,"Cr 46, Near Int. Of Overlook & Cramer Rd",N,"Commerce St, Poughkeepsie, NY, 12603",Dutchess    ,LaGrange,0,0,0,0,0,1,Sand and Gravel,,,,,,,,0,No,03/20/2003 12:00:00 AM,UC  ,
60011,"Denmark, Town of",,N, ,Jefferson   ,Champion       ,0,0,0,0,0,1,Sand and Gravel,,,01/01/1901,,,,,0,No,04/06/2007 12:00:00 AM,UC  ,
80240,A L Blades & Sons Inc,,N, ,Steuben     ,West Union     ,0,0,0,0,0,1,Sand and Gravel,,,,,42.094819999999999,-77.64716,,0,No,04/30/2007 12:00:00 AM,UC  ,
50731,"Austin, Stanley",Austin Sand And Gravel,R,"136 Broadway, Whitehall, NY, 12887",Washington  ,Whitehall      ,8,3,3,3,0,1,Sand and Gravel,04/19/1994,04/19/1994,04/18/1999,07/18/2002,43.531570000000002,-73.310850000000002,GRAS,2000,No,03/25/2003 12:00:00 AM,UCR ,
10006,"North Hempstead, Town of Sol Waste Manag",,R,"802 West Shore Rd, Port Washington, NY, 11050 0239",Nassau      ,North Hempstead,460,273,273,273,0,1,Sand and Gravel,,04/28/1997,04/30/2001,10/05/2000,40.825600000000001,-73.664370000000005,R/C,0,No,03/19/2003 12:00:00 AM,UCR ,
60490,"Cooke, John D.",Rogers Road Site,R,"Box 1043c, Rt 1, Evans Mills, NY, 13637",Jefferson   ,Leray          ,20,18,18,18,0,1,Sand and Gravel,01/01/1986,11/25/1992,11/30/1997,01/06/1988,44.073360000000001,-75.831249999999997,GRAS,36000,No,03/28/2003 12:00:00 AM,UCR ,
60428,Hull Corp,,R,"Rd# 2, River Road, Marcy, NY, 13403 0980",Oneida      ,Marcy          ,0,16,16,16,0,1,Sand and Gravel,,,03/31/1988,,43.13017,-75.118210000000005,GRAS,0,No,03/28/2003 12:00:00 AM,UCR ,
71011,Devonian Stone Of New York Inc,Tusca Ridge Main,A,East side of Cascade valley road/Flanders Hill intersection.,Broome      ,Windsor        ,507,35,6.6,0,6.6,2,Bluestone      ,12/05/2014,02/25/2020,11/19/2021,01/27/2020,42.043312999999998,-75.562040999999994,OPEN,38200,No,05/08/2019 12:00:00 AM,C   ,
50579,"White, Martha L",White Pit,A,east of Mason Street and along south-side of active O.H. electric r-o-w,Clinton     ,Schuyler Falls,116,28.17,19.95,10,9.95,2,Sand and Gravel,05/08/1989,10/11/2019,05/07/2022,08/27/2019,44.673000000000002,-73.539000000000001,GRAS,43000,No,10/15/2019 12:00:00 AM,UC  ,
40890,Sonny & Sons Stone Co,Woodwise Quarry #1,A,"Sands Creek Road (west side), ~ 1 mile north of NY 17",Delaware    ,Hancock        ,848,10,7.4,0.5,6.9,2,Bluestone      ,12/15/2010,10/04/2019,10/25/2020,06/04/2019,41.998657999999999,-75.321462999999994,GRAS,44933,No,12/01/2016 12:00:00 AM,C   ,
50326,MJM Road Materials Inc,Marotta Mine #1,R,"South Side of Route 22,  West of Whipporwill Way",Washington  ,Fort Ann       ,0,0,5,5,0,1,Sand and Gravel,09/24/1987,,09/24/1987,,43.458770000000001,-73.395660000000007,GRAS,0,No,04/24/2007 12:00:00 AM,UCR ,
40814,Blue Nature Inc,Quarry Road Authorization,N,Off Quarry Road near county rte 23,Delaware    ,Sidney         ,95,1,1,0,1,1,Bluestone      ,,,,08/02/2005,42.30988,-75.352220000000003,GRAS,1300,No,07/10/2006 12:00:00 AM,C   ,
40553,Troy Sand & Gravel Co Inc,Calhoun Pit,R,"PO Box 171, Watervliet, NY, 12189 0017",Rensselaer  ,Hoosick        ,93,9,5,5,0,1,Sand and Gravel,07/03/1990,08/28/2002,06/30/2003,09/05/2003,42.932980000000001,-73.354259999999996,GRAS,0,No,09/17/2003 12:00:00 AM,UCR ,
70987,"Grosvenor, Clifford",Blewett Quarry,A,"421 Hargrove rd, west side haul rd adjacent to house",Broome      ,Windsor        ,98,5,5,0,5,1,Bluestone      ,01/06/2012,08/19/2014,09/19/2018,12/12/2018,42.026535000000003,-75.676068000000001,GRAS,26500,No,03/28/2016 12:00:00 AM,C   ,
30010,Tilcon New York Inc,West Nyack Quarry,A,"1 Crusher Rd, West Nyack, NY 10994",Rockland    ,Clarkstown     ,167,153,153,0,153,5,Trap Rock      ,10/30/1978,08/01/2009,09/25/2011,01/16/2019,41.105159999999998,-73.957880000000003,WETL,970480,No,08/16/2019 12:00:00 AM,C   ,
50052,"Greenfield, Town of",,R,"Rd #1 Box 180, Greenfield Center, NY, 12833 0180",Saratoga    ,Greenfield     ,0,12,12,12,0,1,Sand and Gravel,05/02/1976,08/05/1987,05/02/1988,,43.145527999999999,-73.881940999999998,R/C,0,No,10/31/2006 12:00:00 AM,UCR ,
70652,Cayuga County Soil & Water Conservation,Porten Borrow Pit - Manrow Road,R,"7413 County House Road, Auburn, NY, 13021 0000",Cayuga      ,Sennett        ,33,4,4,4,0,1,Sand and Gravel,12/04/1991,06/30/1992,06/30/1995,04/04/1995,42.99747,-76.565060000000003,LAKE,0,No,03/31/2003 12:00:00 AM,UCR ,
70796,"Killenbeck, Donald",Beaver Meadows Mine,A,North side County Route 13 power line adjacent,Oswego      ,Boylston       ,148,6.7,4.7,3.6,1.1,1,Sand and Gravel,08/18/2000,07/24/2017,07/23/2022,05/22/2019,43.668370000000003,-75.932500000000005,GRAS,6450,No,07/26/2017 12:00:00 AM,UC  ,
60798,Cal's Gear & Auto Parts Inc,West Thomas Street,R,"127 West Embargo Street, Rome, NY, 13440 0513",Oneida      ,Rome           ,20,5,3,3,0,1,Sand and Gravel,06/29/1992,07/01/1997,07/01/2002,08/22/2001,43.26397,-75.494219999999999,GRAS,10000,No,08/06/2004 12:00:00 AM,UCR ,
90373,National Conservation Corp,Wheatfield Lakes,R,At Terminus Of Delmar Road;  West Of Witmer Road And South Ferchen Street,Niagara     ,Wheatfield     ,632,134,134,134,0,1,Clay           ,07/03/1986,02/25/1994,07/03/2002,07/28/2005,43.075960000000002,-78.909059999999997,WETL,0,No,01/03/2006 12:00:00 AM,UCR ,
40661,Johnston & Rhodes Bluestone Co,Shinhopple Quarry,A,"1 Bridge St, Box 130, East Branch, NY, 13756",Delaware    ,Colchester     ,42.4,13.8,13.4,0,13.4,3,Bluestone      ,06/22/1993,03/05/2019,03/04/2024,06/05/2019,42.072290000000002,-75.068910000000002,GRAS,92285,No,03/21/2003 12:00:00 AM,C   ,
40019,Callanan Industries Inc,Wynantskill Pit,A,"PO Box 15097, Albany, NY, 12212 5097",Rensselaer  ,North Greenbush,600,538,413.4,0,413.4,5,Sand and Gravel,09/23/1979,12/19/2018,12/18/2023,08/20/2019,42.686779999999999,-73.621759999999995,LAKE,2711075,No,12/11/2019 12:00:00 AM,UC  ,
90948,"Wilson, Bruce",East River Road Site,N,Adjacent to east side of East River Road;   2000' south of Oramel Hill Road intersection.,Allegany    ,Caneadea       ,1,0,1,0,0,1,Sand and Gravel,,,,06/26/2012,42.361370000000001,-78.119829999999993,,0,No,01/10/2008 12:00:00 AM,UC  ,
70726,Leema Gravel Beds Inc,"Daykol Pit, Day Road",R,"1000' east of McDonald Road, 1/4 mile N of Turnpike Road",Cayuga      ,Throop         ,66,4.9,4,4,0,1,Sand and Gravel,05/26/1995,06/17/1996,06/01/2001,09/28/2006,42.97428,-76.613489999999999,AGRI,0,No,10/27/2006 12:00:00 AM,UCR ,
30107,Dutchess Quarry & Supply Co Inc,Kennels Rd. Bank,R,"P.O. Box 651, Pleasant Valley, NY, 12569 0006",Dutchess    ,Washington     ,8,9,8,8,0,1,Sand and Gravel,07/11/1979,11/17/1995,11/15/2000,07/06/2001,41.82009,-73.631870000000006,WETL,15000,No,03/20/2003 12:00:00 AM,UCR ,
80379,"Montour, Town of",Cotton-Hanlon Road Gravel Pit,R,"P.O. Box 579 Havana Glen Rd., Montour Falls, NY, 14865 0057",Schuyler    ,Montour        ,100,3,3,3,0,1,Sand and Gravel,06/12/2002,06/12/2002,06/12/2007,10/26/2007,42.343969999999999,-76.80968,GRAS,0,No,10/29/2007 12:00:00 AM,UCR ,
50085,Trudeau Sand & Gravel Inc,Trudeau Sand And Gravel Pit,A,on the north-side SR 3 and the Saranac River and west of MLF 50363,Essex       ,St Armand      ,120,96,39.4,10,29.4,4,Sand and Gravel,06/12/1975,07/23/2016,07/22/2021,09/06/2019,44.372250000000001,-74.100700000000003,GRAS,90000,No,07/16/2013 12:00:00 AM,UC  ,
80389,"Tinkous, Allan R",Bishoping Mine,R,"16330 Telegraph Road, Holley, NY, 14470 0934",Genesee     ,Le Roy         ,86,17,17,17,0,1,Marl           ,,08/02/1999,08/02/2004,06/26/2001,43.026000000000003,-77.983750000000001,WETL,5000,No,10/13/2006 12:00:00 AM,CR  ,
90260,Gernatt Asphalt Products Inc,Kieffer Property,R,East Side Of Central Avenue;  1300' North Of North Street Intersection.,Erie        ,Concord        ,0,2,2,2,0,1,Sand and Gravel,07/05/1983,08/28/1984,07/01/1985,,42.522759999999998,-78.667850000000001,GRAS,5000,No,01/28/2004 12:00:00 AM,UCR ,
60287,Santaro-Taroson Industries Inc,,R,"471 East Manlius Street, Syracuse, NY, 13057",St. Lawrence ,Pierrepont     ,0,0,10,10,0,1,Sand and Gravel,,,06/30/1982,,,,GRAS,0,No,03/28/2003 12:00:00 AM,UCR ,
90630,Pine Hill Concrete Mix Corp,Marilla Site,N,West Side Of Eldrige Road;  1700' North Of Jamison Road Intersection.,Erie        ,Marilla        ,17,10,0,0,0,1,Sand and Gravel,,,,06/06/2001,42.809359999999998,-78.572850000000003,AGRI,0,No,01/13/2004 12:00:00 AM,UC  ,
90754,Beckman,Tributary #24,N,North Side of Pierson Road;  Between Bowers And Ridge Roads;  In Creek.,Chautauqua  ,Stockton       ,1,0,1,0,1,1,Sand and Gravel,,,,10/09/2003,42.305259999999997,-79.329369999999997,,0,No,01/12/2004 12:00:00 AM,UC  ,
40404,"Hunter, Town of",Town House Pit,R, ,Greene      ,Hunter         ,0,2,2,2,0,1,Sand and Gravel,,,12/17/1988,,,,,0,No,03/21/2003 12:00:00 AM,UCR ,
90412,"Ozga, Stanley R",Canadaway Pit,N,East Side Of Chestnut Road;  1300' South Of Willow Road Intersection.,Chautauqua  ,Dunkirk        ,1,1,0,0,0,1,Sand and Gravel,,,,06/14/2001,42.459760000000003,-79.362669999999994,,0,No,01/13/2004 12:00:00 AM,UC  ,
30597,Sunset Ridge Farm,,N,"Box 33 Reagan Rd., Millerton, NY, 12546",Dutchess    ,Northeast      ,219,0,0,0,0,1,Topsoil        ,,,,,,,,0,No,03/21/2003 12:00:00 AM,UC  ,
60149,"Beckwith, Robert",Beckwith Sand & Gravel Pit,A,"Elizabethtown Road, entrance is directly across from Beebe Road",Herkimer    ,Litchfield     ,186,32.8,18,12.8,5.2,2,Sand and Gravel,09/22/1994,10/27/2015,09/30/2020,02/28/2017,42.962091000000001,-75.093243999999999,GRAS,25000,No,04/12/2012 12:00:00 AM,UC  ,
90140,A L Blades & Sons Inc,Blades Borrow Pit,R,South Side Of Rt. 70;  1100' East Of Hess Road Intersection.,Allegany    ,Burns          ,0,11,11,11,0,1,Sand and Gravel,04/11/1979,04/11/1979,04/11/1982,11/15/2007,42.459870000000002,-77.751220000000004,AGRI,0,No,01/26/2004 12:00:00 AM,UCR ,
90465,Gernatt Asphalt Products Inc,Gernatt Freedom Plant/Borer Deposit,A,North Side of Rt. 98;  Between Sandbank And Galen Hill Roads.,Cattaraugus ,Freedom        ,331,285.5,278.5,22,256.5,5,Sand and Gravel,05/19/1989,09/19/2019,04/09/2023,01/15/2020,42.487960000000001,-78.361840000000001,AGRI,1496550,No,08/12/2019 12:00:00 AM,UC  ,
60891,Curran Logging Inc,Maple Ridge Mine,A,"North on Upper Rigde Rd, 1200ft East of Hopson Rd",St. Lawrence ,Brasher        ,108.4,54,27.6,2.5,25.1,4,Sand and Gravel,08/18/1995,03/11/2015,03/01/2020,09/26/2018,44.885939999999998,-74.833116000000004,GRAS,138426,No,01/09/2018 12:00:00 AM,UC  ,
60481,Rubino Rock Products Co Inc,,R,"205 First Avenue, Frankfort, NY, 13340 0131",Herkimer    ,Herkimer       ,3,3,3,3,0,1,Sand and Gravel,04/08/1986,04/08/1986,04/30/1989,07/23/1987,43.034269999999999,-75.049000000000007,GRAS,0,No,06/30/2005 12:00:00 AM,UCR ,
60589,Lewis County Highway Dept,,R,"Court House, Lowville, NY, 13367",Lewis       ,Martinsburg    ,5,0,5,5,0,1,Sand and Gravel,,,06/30/1991,04/22/1988,43.76397,-75.519329999999997,GRAS,0,No,03/28/2003 12:00:00 AM,UCR ,
80193,"Hogan, Marvin E",Saxby Pit,R,"8045 Victor Mendon Rd, Victor, NY, 14564 0917",Ontario     ,Victor         ,107,35,35,35,0,1,Sand and Gravel,10/07/1985,05/10/2002,04/24/2003,09/21/2005,42.997259999999997,-77.479519999999994,GRAS,0,No,09/22/2005 12:00:00 AM,UCR ,
90074,"Randolph, Village of",Village Pit,N,West Side Of Keith Road;  4100' South Of Seager Hill Road Intersection.,Cattaraugus ,Conewango      ,1,1,0,0,0,1,Sand and Gravel,,,,04/09/2001,42.227460000000001,-78.97766,,0,No,01/13/2004 12:00:00 AM,UC  ,
61151,Seaway Timber Harvesting Inc,LaClair Topsoil Mine,A,LaClair Road and Hopson Road,St. Lawrence ,Brasher        ,530,237.8,1,0,1,1,Topsoil        ,03/30/2020,04/01/2020,03/31/2025,10/17/2019,44.895958999999998,-74.859966999999997,AGRI,5000,No,03/30/2020 12:00:00 AM,UC  ,
70265,The Lane Construction Corp,Brosnan Pit - Tar Hill Road,R,"P.O. Box 87, Altmar, NY, 13302",Oswego      ,Orwell         ,4,4,4,4,0,1,Sand and Gravel,05/28/1981,07/07/1981,06/05/1982,,43.526470000000003,-75.996139999999997,GRAS,0,No,03/31/2003 12:00:00 AM,UCR ,
80698,Savona Gravel LLC,Hopkins Gravel Pit,A,"State Rte 415, Campbell, NY",Steuben     ,Campbell       ,25,21.4,21.4,14,7.4,2,Sand and Gravel,06/23/1995,03/11/2014,03/10/2019,07/17/2019,42.270670000000003,-77.211600000000004,GRAS,37400,No,06/03/2013 12:00:00 AM,UC  ,
40231,Burton F Clark Inc,Hillis Gravel Bank,A,"PO Box 427, Delhi, NY, 13753 0042",Delaware    ,Davenport      ,66.52,62.3,53.76,16.69,37.07,5,Sand and Gravel,05/17/1979,02/21/2019,02/20/2024,01/02/2020,42.479680000000002,-74.826099999999997,AGRI,245959,No,05/02/2003 12:00:00 AM,UC  ,
40252,"Coxsackie, Town of",Madarasz Pit,R,"16 Reed St, Coxsackie, NY, 12051 0121",Greene      ,Coxsackie      ,7,0,7,7,0,1,Shale          ,,,07/24/1987,09/05/2000,42.300789999999999,-73.792469999999994,GRAS,0,No,03/21/2003 12:00:00 AM,CR  ,
50848,"Rabideau, Giles",Rabideau Sand Mine,R,"908 Woods Falls Road, Mooers Forks, NY, 12959",Clinton     ,Mooers         ,30,6,6,6,0,1,Sand and Gravel,07/07/1998,07/07/1998,07/03/2003,08/20/2003,44.939509999999999,-73.645989999999998,GRAS,0,No,03/03/2005 12:00:00 AM,UCR ,
30278,"Deerpark, Town of",,R,"Drawer A, Huguenot, NY, 12746 0062",Orange      ,Deerpark       ,2,2,2,2,0,1,Sand and Gravel,,,10/13/1987,06/10/2008,41.415889999999997,-74.630409999999998,IND,0,No,09/08/2008 12:00:00 AM,UCR ,
80665,"Hubbard, Timothy",Hub-Boy Gravel Products,A,County Route 70 near County Route 6,Steuben     ,Avoca          ,140,57,19.55,0,19.55,3,Sand and Gravel,05/19/1994,08/06/2019,08/06/2020,04/25/2019,42.405720000000002,-77.487129999999993,AGRI,106909,No,07/25/2019 12:00:00 AM,UC  ,
60516,"Lee, Town of",,R,"Box 191, School Street, Lee Center, NY, 13363",Oneida      ,Lee            ,0,2,2,2,0,1,Sand and Gravel,,,01/31/1990,12/23/1986,43.298569999999998,-75.482919999999993,AGRI,0,No,03/28/2003 12:00:00 AM,UCR ,
50451,Steven E Fuller Excavating Inc,Carter Pit,A,on the east-side of SR 374 and south of County Rt. 54 (Forge Rd.),Franklin    ,Bellmont       ,28,8,8,0,8,2,Sand and Gravel,06/05/1987,12/31/2014,12/30/2019,01/10/2020,44.839930000000003,-74.027000000000001,GRAS,30000,No,08/11/2017 12:00:00 AM,UC  ,
70526,"Cazenovia, Town of - Highway Department",Cazenovia Gravel Bed  - Nine Road,R,"west side of Constine Bridge Road, behind highway garage.",Madison     ,Cazenovia      ,50,6,6,6,0,1,Sand and Gravel,12/14/1978,07/25/2006,07/24/2011,06/30/2011,42.889400000000002,-75.829700000000003,GRAS,0,No,07/06/2011 12:00:00 AM,UCR ,
40494,Flach Industries Inc,New Baltimore Pit,T,"Box 246, Route 9w, Glenmont, NY, 12077 0000",Greene      ,New Baltimore  ,0,7,7,0,7,2,Sand and Gravel,05/01/1989,05/01/1996,05/01/2001,05/06/2015,42.445079999999997,-73.811869999999999,GRAS,14000,No,07/30/2004 12:00:00 AM,UC  ,
80810,Willow Bend Farm LLC,Willow Bend Mine,A,Port Gibson Road (County Rte. 7),Ontario     ,Manchester     ,2200,15.95,6.1,0,6.1,2,Sand and Gravel,05/28/2003,02/03/2020,02/02/2025,02/05/2020,42.980069999999998,-77.175510000000003,AGRI,32071,No,01/13/2004 12:00:00 AM,UC  ,
60375,Oakes Excavating,Gravel Pit #1,R,"1792 State Route 420, Massena, NY, 13662 0953",St. Lawrence ,Stockholm      ,50,6,4,4,0,1,Sand and Gravel,,02/13/1996,04/01/2000,06/09/2000,44.835450000000002,-74.833839999999995,GRAS,6000,No,03/28/2003 12:00:00 AM,UCR ,
60985,"Maciejko, Jason",Ehlers Mine,A,West Of Route 12 1 Mile South Of Milk House Road.,Lewis       ,Turin          ,66,9.2,3.5,0,3.5,1,Sand and Gravel,08/18/2000,11/18/2015,10/01/2020,07/26/2018,43.664082999999998,-75.384608,GRAS,24354,No,12/01/2016 12:00:00 AM,UC  ,
80772,Dendis Sand & Gravel Inc,Farmington Pit,A,"877 County Rd #8, Farmington",Ontario     ,Farmington     ,51.6,11,9.7,0,9.7,2,Sand and Gravel,12/05/2000,10/25/2018,06/06/2021,02/05/2020,42.994459999999997,-77.324299999999994,GRAS,49233,No,02/01/2017 12:00:00 AM,UC  ,
40611,"Wiltbank, Gary R",Wiltbank Pit,R,"102 Charles Smith Road, Saugerties, NY, 12477",Greene      ,Catskill       ,187,3,2,2,0,1,Sand and Gravel,06/07/1993,06/09/1998,06/09/2003,06/29/2000,42.15419,-73.955039999999997,GRAS,2000,No,03/21/2003 12:00:00 AM,UCR ,
91037,"Stein, Wayne",Stein Farm,N,East side of CR 5 (New Albion Road); 1200' south of CR 5 and CR 6 intersection.,Cattaraugus ,New Albion     ,1,1,1,0,1,1,Sand and Gravel,05/09/2012,,,,42.2881,-78.883700000000005,,0,No,05/09/2012 12:00:00 AM,UC  ,
50310,Fulton County Board of Supervisors,West Fulton Mine,R,"C/O P.O. Box 28, Johnstown, NY, 12095",Fulton      ,Mayfield       ,100,37,37,37,0,1,Sand and Gravel,04/16/1987,03/26/1990,02/27/1993,,43.040370000000003,-74.398579999999995,GRAS,0,No,03/25/2003 12:00:00 AM,UCR ,
70181,Timbello Enterprises Inc,Benway Pit - Rt 264 & Biddlecum Rd.,N,"P.O. Box 366, East Syracuse, NY, 13057",Oswego      ,Schroeppel     ,2,0,0,0,0,1,Clay           ,04/12/1978,05/10/1978,09/01/1978,,43.296219999999998,-76.298676,LAKE,0,No,12/01/2016 12:00:00 AM,UC  ,
70551,WD Malone Trucking & Excavating Inc,Granby Pit,A,Stoney-Robby Road,Oswego      ,Granby         ,105.91,51.5,13.6,0,13.6,3,Sand and Gravel,04/29/1989,08/06/2019,08/05/2024,06/14/2019,43.350470000000001,-76.449460000000002,GRAS,80000,No,06/09/2011 12:00:00 AM,UC  ,
60411,Penn Yan Builders,,R,"P. O. Box 3, Penn Yan, NY, 14527 0000",Lewis       ,Lowville       ,0,0,2,2,0,1,Sand and Gravel,,,10/31/1985,,43.792569999999998,-75.552729999999997,AGRI,0,No,03/28/2003 12:00:00 AM,UCR ,
60010,"Diana, Town of",,R,"Mr. Clarence Wicks, Harrisville, NY, 13648",Lewis       ,Diana          ,0,0,0,0,0,1,Sand and Gravel,,,01/01/1901,,,,,0,No,03/27/2003 12:00:00 AM,UCR ,
70816,Northern Aggregates Inc,Bonaccorso Mine,R,Silk Road,Oswego      ,Volney         ,47,30,30,30,0,1,Sand and Gravel,06/14/2000,05/12/2004,05/12/2009,06/05/2007,43.349200000000003,-76.379900000000006,GRAS,0,No,06/05/2007 12:00:00 AM,UCR ,
70414,"Lebanon, Town of - Highway Department",Drexlers Sand Bed - East River Road,R,"Bradley Brook Road, Lebanon, NY, 13332",Chenango    ,Smyrna         ,49,12,12,12,0,1,Sand and Gravel,03/31/1986,05/12/1998,04/30/2003,07/21/2003,42.69791,-75.561229999999995,GRAS,0,No,07/22/2003 12:00:00 AM,UCR ,
90499,"Blocher, James F",Gravel Pit,N,"388 Kern Road, Cowelsville, NY, 14037",Wyoming     ,Bennington     ,3,3,0,0,0,1,Sand and Gravel,,,,07/09/2008,42.823160000000001,-78.459140000000005,AGRI,0,No,07/11/2008 12:00:00 AM,UC  ,
80757,Cold Spring Construction Company,Cerrillo Borrow Pit,R,"3 Jackson Street, Akron, NY",Steuben     ,West Union     ,81,1,1,1,0,1,Sand and Gravel,06/29/1999,06/29/1999,06/29/2000,09/14/2000,42.094859999999997,-77.655090000000001,,0,No,07/29/2004 12:00:00 AM,UCR ,
90381,"Morse, Ronald",Dorman Site,N,North Side of Rt. 20;  800' East of Adams Road Intersection.,Chautauqua  ,Pomfret        ,7,7,0,0,0,1,Sand and Gravel,,,,,42.425660000000001,-79.360969999999995,,0,No,02/05/2004 12:00:00 AM,UC  ,
70157,"Crawford, Carl J","Pit #1, Simmons Road",R,"Rd #1 Box 223, Sterling, NY, 13156 0975",Cayuga      ,Sterling       ,66,66,0,0,0,1,Sand and Gravel,04/01/1975,08/10/1988,08/10/1991,10/05/1994,43.30753,-76.671599999999998,GRAS,5000,No,03/31/2003 12:00:00 AM,UCR ,
30167,Sterling Stone Ltd,,Q,"Box 101 Glenwood Rd., Pine Island, NY, 10969",Orange      ,Warwick        ,30,0,30,0,30,4,Limestone      ,,,10/18/1983,,41.284950000000002,-74.476560000000006,GRAS,0,No,06/17/2004 12:00:00 AM,C   ,
80616,Kanaval LLC,Kanaval Pit,A,"4029 Jones Road, Cohocton, NY, 14826",Steuben     ,Cohocton       ,21.1,10.5,10.5,5.1,5.4,2,Sand and Gravel,07/09/1993,07/20/2017,07/19/2022,02/24/2020,42.503790000000002,-77.491010000000003,GRAS,28500,No,07/21/2017 12:00:00 AM,UC  ,
70678,A & G Realty Associates LLC,Dyer Flat Mine,A,East side of Dyer Flat Road,Broome      ,Colesville     ,59.5,50.24,50.24,0,50.24,5,Sand and Gravel,05/28/1993,02/11/2020,08/17/2021,02/25/2020,42.171500000000002,-75.608800000000002,AGRI,271500,No,05/18/2016 12:00:00 AM,UC  ,
40920,Helderberg Excavating & Trucking Inc,Helderberg Mine,A,Stitt Road (Osborn side),Albany      ,Guilderland    ,82.5,6.35,6.35,0,6.35,2,Sand and Gravel,03/21/2018,03/21/2018,03/20/2023,03/18/2020,42.717500000000001,-73.988100000000003,GRAS,42145,No,03/22/2018 12:00:00 AM,UC  ,
90481,"Altimus, Jeffrey",Fredonia Peat Mine,N,West Side Of Fredonia-Stockton Road;  Between Bull And Osborne Roads.,Chautauqua  ,Pomfret        ,6,6,0,0,0,1,Peat           ,,,,07/23/2009,42.379860000000001,-79.349270000000004,,0,No,07/31/2009 12:00:00 AM,UC  ,
70481,"Weaver, Robert L",Pit #15- Hogsback Road,N,"Box 59-A, Constantia, NY, 13044 0005",Oswego      ,Hastings       ,104,10,0,0,0,1,Sand and Gravel,02/01/1988,,,,43.359070000000003,-76.141130000000004,GRAS,0,No,03/31/2003 12:00:00 AM,UC  ,
70296,"Frank, Harry",Shepard Road - Next To Porter,N,"150 First Street, Sayre, Pa, 18840",Tioga       ,Barton         ,30,30,2,2,0,1,Sand and Gravel,03/15/1982,,,,41.998980000000003,-76.478729999999999,GRAS,0,No,03/31/2003 12:00:00 AM,UC  ,
80488,Steuben County DPW,Sauerbier Pit,R,"3 E Pulteney Square, Bath, NY, 14810 0163",Steuben     ,Wayland        ,76,11.4,11.4,11.4,0,1,Sand and Gravel,,05/04/2001,05/04/2002,09/30/2003,42.489400000000003,-77.581530000000001,GRAS,0,No,10/13/2006 12:00:00 AM,UCR ,
70167,F S Lopke Contracting Inc,River Drive Mine,A,East River Drive,Tioga       ,Nichols        ,251,111,78.7,30,48.7,5,Sand and Gravel,04/14/1977,10/03/2018,01/05/2022,02/28/2019,42.074165999999998,-76.329818000000003,LAKE,267500,No,05/18/2015 12:00:00 AM,UC  ,
60900,"Lewis, Town of",Parsons Mine,A,"North of County Highway 46, 300ft West of Goodhines Rd",Lewis       ,Lewis          ,397,6.6,6.6,0,6.6,2,Sand and Gravel,12/01/1995,03/31/2009,03/01/2014,08/07/2019,43.448920000000001,-75.574889999999996,GRAS,0,No,01/04/2019 12:00:00 AM,UC  ,
50126,International Paper Co,Round Lake Pit,R,"Little Wolf Road, Tupper Lake, NY, 12986",Hamilton    ,Long Lake      ,27,27,27,27,0,1,Sand and Gravel,10/16/1978,09/14/1994,06/18/1996,,44.064160000000001,-74.553910000000002,R/C,27000,No,03/21/2003 12:00:00 AM,UCR ,
50238,Harlow Excavating & Contracting Inc,Harlow Pit,A,on the west-side of SR 73 and north of Bobsled Run Lane,Essex       ,North Elba     ,50,20,8,6.4,1.6,1,Sand and Gravel,04/27/1976,08/28/1995,08/18/2000,08/08/2019,44.228250000000003,-73.916989999999998,GRAS,15000,No,09/08/2015 12:00:00 AM,UC  ,
80518,Dendis Sand & Gravel Inc,Boyde Pit,A,"52 Rte 318, Phelps, NY, 14532 0009",Ontario     ,Phelps         ,65,58.5,35,6,29,4,Sand and Gravel,11/23/1988,03/04/2020,03/03/2025,01/10/2020,42.947200000000002,-76.966899999999995,AGRI,163827,No,12/29/2003 12:00:00 AM,UC  ,
60786,Tug Hill Construction Inc,Mattimore Mine,R,"Box 158, Felts Mills, NY, 13638 0015",St. Lawrence ,Canton         ,300,9,8,8,0,1,Sand and Gravel,08/23/1991,04/08/1992,04/30/1995,,44.50956,-75.206850000000003,GRAS,14500,No,03/28/2003 12:00:00 AM,UCR ,
70712,"Perry, Grant L",Rolling Hills Pond Sand And Gravel,A,"South side of Chatfield Road, east of Baker Road",Cayuga      ,Sennett        ,106.66,24.4,24.4,17.4,7,2,Sand and Gravel,07/20/1994,03/20/2015,03/19/2020,03/09/2020,43.010800000000003,-76.496899999999997,GRAS,37300,No,07/22/2016 12:00:00 AM,UC  ,
30360,NYS DEC - Div Of Lands & Forests,,R,"Box C, Millbrook, NY, 12545 0015",Dutchess    ,Washington     ,0,0,8,8,0,1,Sand and Gravel,,,03/21/1988,,41.773290000000003,-73.57517,AGRI,0,No,01/10/2017 12:00:00 AM,UCR ,
30450,Scoland Farms Inc,Boston Corners Rd.,R,"66 Cornwall Rd, Warren, Ct, 06754",Dutchess    ,Northeast      ,0,22,4,4,0,1,Sand and Gravel,10/07/1991,10/07/1991,10/07/1994,,41.92989,-73.610169999999997,GRAS,8000,No,03/20/2003 12:00:00 AM,UCR ,
70822,"Otselic, Town of",Otselic Gravel Pit,R,"north side of Valley Garage, close by town barn",Chenango    ,Otselic        ,243,6,6,6,0,1,Sand and Gravel,05/20/1998,04/06/2009,03/31/2014,03/09/2016,42.654299999999999,-75.776799999999994,AGRI,0,No,03/10/2016 12:00:00 AM,UCR ,
80763,Seneca Meadows Inc,Bostwick Road Surface Mine,R,"1786 Salcman Rd, Waterloo, NY, 13165",Ontario     ,Phelps         ,57.6,14.3,14.3,14.3,0,1,Sand and Gravel,02/04/2000,06/10/2010,06/09/2015,10/08/2014,42.960610000000003,-76.968699999999998,OPEN,0,No,10/09/2014 12:00:00 AM,UCR ,
60188,"Lyle, Edward",,R,"Rd # 1, Herkimer, NY, 13350 0980",Herkimer    ,Little Falls   ,0,8,8,8,0,1,Sand and Gravel,,,03/31/1985,,43.029870000000003,-74.916600000000003,GRAS,10000,No,03/27/2003 12:00:00 AM,UCR ,
70484,"Puglia, Samuel A",Rathburn Road Mine,R,"Route 3 West, Fulton, NY, 13069 0980",Oswego      ,Granby         ,4,4,4,4,0,1,Sand and Gravel,07/12/1988,12/29/1988,12/29/1991,,43.33061,-76.500780000000006,GRAS,5000,No,06/02/2003 12:00:00 AM,UCR ,
60039,Hanson Aggregates New York LLC,Boonville Pit,A,"Route 46, entrance across 46 from Mineral Springs Road",Oneida      ,Boonville      ,132,103.7,96.3,16.5,79.8,5,Sand and Gravel,05/15/1975,03/13/2019,03/12/2024,08/29/2018,43.467118999999997,-75.316596000000004,GRAS,430000,No,11/09/2011 12:00:00 AM,UC  ,
70101,"Church, Dorothy",Charles Church Mine,N,"83261 Oswego Road, Baldwinsville, NY, 13027",Onondaga    ,Lysander       ,0,0,0,0,0,1,Sand and Gravel,04/01/1975,,,,43.18374,-76.364279999999994,,0,No,02/24/2004 12:00:00 AM,UC  ,
30445,Steel Style Inc,Blooming Grove Mine,A,W side of NYS Rt 208 ~ 0.30 miles N of Museum Village Rd.,Orange      ,Blooming Grove ,84,12.9,12.9,0,12.9,3,Sand and Gravel,03/20/1989,04/23/2018,04/22/2023,06/02/2017,41.357410000000002,-74.194792000000007,GRAS,87636,No,01/07/2013 12:00:00 AM,UC  ,
80218,"Barre, Town of",,R, ,Orleans     ,Albion         ,0,0,0,0,0,1,Sand and Gravel,,,,,,,,0,No,01/04/2018 12:00:00 AM,UCR ,
61100,Seaway Timber Harvesting Inc,Louisville Sand Mine,A,"500 feet east of CR 39, 1.6 miles north of the intersection with SH 310",St. Lawrence ,Louisville     ,148.5,67.2,19.9,0,19.9,3,Sand and Gravel,10/08/2010,01/10/2018,01/01/2023,09/26/2018,44.874408000000003,-74.985026000000005,LAKE,123578,No,09/15/2017 12:00:00 AM,UC  ,
60444,Tioga Construction Co Inc,Town Of Ohio Pit,A,"St Rt 8, 2 miles East of the Rt 8/365 intersection",Herkimer    ,Ohio           ,38,20,15,0,15,3,Sand and Gravel,06/17/1985,03/02/2012,03/01/2017,10/04/2016,43.378999,-74.920202000000003,GRAS,37500,No,01/04/2012 12:00:00 AM,UC  ,
40055,Peckham Materials Corp,Catskill Quarry,R,"20 Haarlem Ave, White Plains, NY, 10603 0222",Greene      ,Catskill       ,90,85,51,51,0,1,Limestone      ,07/01/1978,11/27/2015,11/26/2016,05/26/2016,42.21049,-73.901169999999993,OTH,0,No,05/31/2016 12:00:00 AM,CR  ,
50363,Upstone Materials Inc,Cassavaugh Pit,A,on the north-side of SR 3 and NE of Saranac Lake,Essex       ,St Armand      ,30.6,26,20,1.5,18.5,3,Sand and Gravel,12/31/1985,06/29/2017,12/31/2021,12/31/2019,44.373750000000001,-74.094700000000003,GRAS,82000,No,08/30/2017 12:00:00 AM,UC  ,
40391,"Anderson, Steven",Arrighi Farm Pit,R,"2758 County Route 9, East Chatham, NY, 12060",Columbia    ,Canaan         ,134,15,15,15,0,1,Sand and Gravel,10/30/1985,04/07/1997,04/07/2004,11/04/2002,42.39958,-73.521360000000001,GRAS,0,No,03/21/2003 12:00:00 AM,UCR ,
80337,Vincent Steffen,,N,"1035 High Vista Ter., West Webster, NY, 14580 0183",Wayne       ,Palmyra        ,0,0,0,0,0,1,Sand and Gravel,,,,,43.09646,-77.209400000000002,,0,No,01/05/2018 12:00:00 AM,UC  ,
80489,Steuben County Highway Dept,Brockway-Lechner Pit,R,"117 East Steuben Street, Bath, NY, 14810 0163",Steuben     ,Woodhull       ,11,11,3,3,0,1,Sand and Gravel,,09/23/1987,09/23/1990,,42.048070000000003,-77.323400000000007,AGRI,0,No,04/30/2007 12:00:00 AM,UCR ,
50679,Rifenburg Construction Inc,Maple Ave Extension Mine,A,East of CR 122 (Maple Ave Ext) 900' S of Johnson Ave intersection,Fulton      ,Johnstown      ,40,17.4,17.4,0,17.4,3,Sand and Gravel,05/09/1996,04/11/2016,04/10/2021,02/05/2019,43.042645999999998,-74.373655999999997,GRAS,52200,No,04/24/2018 12:00:00 AM,UC  ,
61141,Perras Excavating Inc,Grant Sand Mine,A,"North on Brouse Rd, 550ft NE of Gladding Rd",St. Lawrence ,Norfolk        ,130,7.28,7.28,0,7.28,2,Sand and Gravel,05/12/2017,05/12/2017,05/01/2022,04/23/2019,44.884700000000002,-74.916200000000003,GRAS,45523,No,01/09/2018 12:00:00 AM,UC  ,
80643,Dolomite Products Company Inc,Newark Operation,A,"Rte 31, Palmyra, NY, 14522",Wayne       ,Arcadia        ,159,122.7,122.7,22.3,100.4,5,Sand and Gravel,04/01/1993,06/08/2015,06/07/2020,02/11/2020,43.068539999999999,-77.126909999999995,AGRI,532192,No,08/25/2009 12:00:00 AM,UC  ,
90556,Pembroke Sand & Gravel Incorporated,McKinstry Pit,A,East Side Of Mckinstry Road;  North Of Martin Road.,Cattaraugus ,Yorkshire      ,140,58.6,6.5,0,6.5,2,Sand and Gravel,01/12/1993,06/26/2019,06/25/2024,01/15/2020,42.457160000000002,-78.502740000000003,AGRI,44414,No,07/01/2019 12:00:00 AM,UC  ,
90054,"Allegany, Town of",Old Lippert Pit,R,East Side Of Five Mile Road;  Just North Of Village Of Allegany And South Of I-86,Cattaraugus ,Allegany       ,27,19,19,19,0,1,Sand and Gravel,01/09/1984,05/06/2008,07/31/2013,07/26/2012,42.10136,-78.494339999999994,R/C,0,No,11/12/2013 12:00:00 AM,UCR ,
90705,Gernatt Asphalt Products Inc,Brocton Pit #1,N,North Side of Ellicott Road;  800' West of Fay Street Intersection.,Chautauqua  ,Portland       ,16,16,0,0,0,1,Sand and Gravel,,,,06/14/2001,42.365560000000002,-79.470169999999996,,0,No,01/13/2004 12:00:00 AM,UC  ,
70504,Master Oil Co Div Of W H M Oil Inc,Nys Route 7 Mine At Afton Lake,R,"54 Main Street, Afton, NY, 0000",Chenango    ,Afton          ,0,0,4,4,0,1,Sand and Gravel,04/01/1975,02/06/1980,02/06/1983,,42.244779999999999,-75.493030000000005,GRAS,0,No,03/31/2003 12:00:00 AM,UCR ,
60628,Rural Hill Sand & Gravel,Quarry,A,County Route 78 and Land Road,Jefferson   ,Henderson      ,67.7,59,27.9,0,27.9,4,Limestone      ,06/01/1979,09/22/2015,09/01/2020,01/03/2020,43.812807999999997,-76.173794000000001,GRAS,206429,No,09/15/2017 12:00:00 AM,C   ,
70363,Cortland County Highway Dept,Arnold's Pit - Route 13,R,"PO BOX 5590, CORTLAND, NY, 13045 0559",Cortland    ,Truxton        ,0,0,3,3,0,1,Sand and Gravel,,08/22/1984,08/22/1987,,42.699269999999999,-76.116749999999996,AGRI,0,No,03/31/2003 12:00:00 AM,UCR ,
50784,"Sheehan, Lorilee",Sheehan Mine,A,"on the north-side of SR 22 and east of Willsboro, with access thru a small cemetary",Essex       ,Willsboro      ,25,12.65,12.65,8.65,4,1,Sand and Gravel,07/28/1995,02/01/2016,01/31/2021,09/24/2019,44.360283000000003,-73.375305999999995,GRAS,20000,No,09/05/2017 12:00:00 AM,UC  ,
90624,"Angelica, Town of",Angelica Creek - West,R,South Side Of Cr 16;  Just West Of Village Line.,Allegany    ,Angelica       ,20,3,3,3,0,1,Sand and Gravel,01/23/1998,01/11/2008,01/23/2009,06/02/2008,42.309269999999998,-78.037229999999994,OTH,0,No,02/03/2009 12:00:00 AM,UCR ,
90261,SLC Constructors Inc,Martin Farm Sand Pit,R,North Side of Gow Road;  3000' East of Hess Road Intersection.,Niagara     ,Newfane        ,143,13,13,13,0,1,Sand and Gravel,10/21/1983,08/24/1994,08/24/1999,06/15/2000,43.290059999999997,-78.637649999999994,WETL,25000,No,01/28/2004 12:00:00 AM,UCR ,
80163,"Addison, Town of",Addison Gravel Pit,A,"Rr 1 Box 2796, Addison, NY, 14801 0980",Steuben     ,Addison        ,50,21,21,6,15,3,Sand and Gravel,07/15/1981,03/25/2020,03/24/2025,07/18/2019,42.132370000000002,-77.223600000000005,GRAS,0,No,09/13/2016 12:00:00 AM,UC  ,
80385,"Huff, Lawrence",,N,"128 Hinkleyville Rd, Spencerport, NY, 14559 0100",Monroe      ,Clarkson       ,0,0,0,0,0,1,Glacial Till   ,,,,,43.220910000000003,-77.890060000000005,,0,No,01/05/2018 12:00:00 AM,UC  ,
70419,S J Groves & Sons Company,Thompson Road Mine - Thompson Road,N,"4530 Wetzel Road, Liverpool, NY, 13088",Onondaga    ,Cicero         ,20,20,0,0,0,1,Glacial Till   ,05/03/1983,,,,43.155270000000002,-76.090739999999997,GRAS,0,No,03/31/2003 12:00:00 AM,UC  ,
90950,"McCormick, Ronald and Margaret",McCormick Pit,N,east of Rte 98 approx. 3500 ft south of intersection w/ Torrey Hill,Wyoming     ,Java           ,33.6,4,4,0,4,1,Sand and Gravel,09/01/2005,,,09/18/2012,42.629860000000001,-78.386139999999997,,0,No,09/02/2005 12:00:00 AM,UC  ,
90182,Bero Construction Corporation,Janson #14,R,West Side Of Rt. 76;  3700' South Of Village Of Sherman.,Chautauqua  ,Sherman        ,4,4,4,4,0,1,Sand and Gravel,09/05/1980,09/05/1980,07/03/1982,,42.150060000000003,-79.591769999999997,OTH,0,No,01/28/2004 12:00:00 AM,UCR ,
50640,Titus Mountain Sand And Gravel LLC,Titus Mountain Gravel Pit,A,"south of Duane Road and on the west-side of Johnson Road, north of the main ski lodge",Franklin    ,Malone         ,44.5,21.5,21.5,0,21.5,4,Sand and Gravel,05/28/1992,05/01/2019,04/30/2024,06/06/2019,44.765349999999998,-74.238110000000006,GRAS,83000,No,03/25/2019 12:00:00 AM,UC  ,
61144,"Haggett, Brian",Schwartz Sand Mine,P,"South of Ekey Road, 1,300 feet west of Lime Hollow Road",St. Lawrence ,Madrid         ,223.9,9.77,2.48,0,2.48,1,Sand and Gravel,,,,08/23/2017,44.774113999999997,-75.030134000000004,LAKE,13205,No,04/12/2018 12:00:00 AM,UC  ,
50921,"Crown Point, Town of",Crown Point Landfill Mine,R,south of Middle Road and Town's closed landfill,Essex       ,Crown Point    ,55,2,2,2,0,1,Sand and Gravel,06/22/2001,06/22/2001,06/18/2006,10/07/2009,43.935519999999997,-73.476979999999998,GRAS,0,No,06/22/2010 12:00:00 AM,UCR ,
90834,"Kieffer, Norman",Arcade Gravel Pit,N,East Side Of Rt. 98;  4700' North Of Curriers Road Intersection.,Wyoming     ,Arcade         ,0,0,0,0,0,1,Sand and Gravel,,,,06/06/2001,42.543559999999999,-78.401139999999998,,0,No,01/15/2004 12:00:00 AM,UC  ,
60991,"Nichols, Roderick",Nichols Sand & Gravel Pit,R,"Route 29, approx. 1 Mile South Of Salisbury Center",Herkimer    ,Salisbury      ,14.5,5,5,5,0,1,Sand and Gravel,05/26/2001,01/10/2012,01/09/2017,07/12/2013,43.130794000000002,-74.780006,GRAS,0,No,07/15/2013 12:00:00 AM,UCR ,
30573,"Persoon, Peter & Alida",Persoon Sand & Gravel Mine,R,"65 Maple Ave., Goshen, NY, 10924",Orange      ,Goshen         ,64,14,14,14,0,1,Sand and Gravel,04/28/1997,12/23/2003,12/23/2008,10/02/2008,41.371009999999998,-74.392169999999993,AGRI,0,No,01/18/2017 12:00:00 AM,UCR ,
70582,Madison County Hwy Dept,Dahlems's Gravel Bed - May Road,A,NE side of May Road,Madison     ,Smithfield     ,259,34.1,34.1,5,29.1,4,Sand and Gravel,01/15/1990,07/10/2018,07/09/2023,04/24/2019,42.946359999999999,-75.631219999999999,AGRI,0,No,06/12/2008 12:00:00 AM,UC  ,
90491,Kenneth Eckman Excavating Inc,Wellman Road Gravel Pit,R,West Side Of Wellman Road;  2400' North Of Sandstrom Road Intersection.,Chautauqua  ,Busti          ,31,14,14,14,0,1,Sand and Gravel,10/14/1994,10/14/1994,10/14/1999,,42.045160000000003,-79.375370000000004,AGRI,0,No,01/29/2004 12:00:00 AM,UCR ,
60471,Lanz Construction Inc,Rickmeyer Road,R,Entrance is approx. 0.4 miles NE of the Rt 365/Rickmeyer intersection,Oneida      ,Rome           ,16.3,13.2,3,3,0,1,Sand and Gravel,05/05/1986,02/05/2013,02/04/2018,08/02/2018,43.209904000000002,-75.387107,GRAS,0,No,08/08/2018 12:00:00 AM,UCR ,
90634,Seneca Construction Services Inc,Little Valley Gravel Pit,A,South Of Rt. 353 And New Albion Road Intersection.,Cattaraugus ,Little Valley  ,4.7,3.4,3.4,0,3.4,1,Sand and Gravel,10/31/1996,06/29/2017,06/28/2022,07/15/2019,42.258459999999999,-78.820760000000007,GRAS,23181,No,01/07/2004 12:00:00 AM,UC  ,
70141,The Lane Construction Corp,Hendrickson Borrow Area - NYS Route 7,R,"P.O. Box 911, Meriden, Ct, 06450",Broome      ,Colesville     ,3,3,3,3,0,1,Sand and Gravel,08/30/1976,08/30/1976,08/30/1977,,42.199300000000001,-75.670649999999995,OTH,3000000,No,03/31/2003 12:00:00 AM,UCR ,
90802,"Hitchcock, Jeff",Polcz Property,N,Sw Of Edmunds Road And Maple Grove Road Intersection.,Cattaraugus ,Freedom        ,2,0,2,0,2,1,Sand and Gravel,,,,11/07/2018,42.476460000000003,-78.383039999999994,,0,No,01/13/2004 12:00:00 AM,UC  ,
70231,Wm J Keller & Sons Construction Corp,Theodore Stith Farm,R,"1435 Rt. 9, Castleton, NY, 12033",Cortland    ,Cincinnatus    ,5,5,5,5,0,1,Sand and Gravel,,,04/14/1981,,42.558880000000002,-75.897419999999997,,0,No,08/02/2004 12:00:00 AM,UCR ,
30509,"Behnke, David",,R,"244 Pancake Hollow Rd., Highland, NY, 12528 0231",Ulster      ,Lloyd          ,112,15,6,6,0,1,Sand and Gravel,07/21/1992,07/21/1992,07/15/1997,04/15/2003,41.727789999999999,-74.013679999999994,AGRI,20000,No,01/27/2017 12:00:00 AM,UCR ,
60492,"Harrisburg, Town of",,R,"R. D. # 1, Lowville, NY, 13367 0980",Lewis       ,Harrisburg     ,7,0,7,7,0,1,Sand and Gravel,,,05/31/1992,09/07/2000,43.80847,-75.711939999999998,GRAS,0,No,03/28/2003 12:00:00 AM,UCR ,
80474,Schuyler County Landfill,,R,"303 N. Franklin Street, Watkins Glen, NY, 14891 0120",Schuyler    ,Reading        ,0,0,20,20,0,1,Clay           ,,,10/16/1987,,42.40437,-76.936980000000005,,0,No,01/05/2018 12:00:00 AM,UCR ,
70452,"Sandy Creek, Town of",Snyder Pit,A,Snyder Road,Oswego      ,Sandy Creek    ,55,31.6,31.6,0,31.6,5,Sand and Gravel,06/17/1987,09/15/2016,09/14/2021,06/11/2019,43.646970000000003,-76.034739999999999,GRAS,0,No,09/13/2016 12:00:00 AM,UC  ,
40100,"Jefferson, Town of",Peck Street Pit,A,"Peck Street, Jefferson, NY, 12093",Schoharie   ,Jefferson      ,23.4,16,16,0,16,3,Sand and Gravel,06/15/1988,03/01/2019,02/28/2024,03/02/2020,42.474330000000002,-74.617350000000002,GRAS,0,No,09/30/2015 12:00:00 AM,UC  ,
90306,"Jones, Donald J",Jones Pit,R,Nw of Wiltsie Road And Dodge Road Intersection.,Chautauqua  ,Carroll        ,0,5,2,2,0,1,Sand and Gravel,10/29/1985,12/13/1991,10/30/1996,,42.00976,-79.084869999999995,R/C,0,No,01/29/2004 12:00:00 AM,UCR ,
40699,"Nolan, William F","Craryville Pit, Nolan-Edelman",R,"52 Baker Street, West Stockbridge, Ma, 01266",Columbia    ,Copake         ,4.5,4.5,4.5,4.5,0,1,Sand and Gravel,08/19/1996,03/17/2015,08/09/2016,07/21/2016,42.152000000000001,-73.569199999999995,GRAS,0,No,07/26/2016 12:00:00 AM,UCR ,
50006,Upstone Materials Inc,Porter Road Pit,A,on the west-side of Porter Road and east of River Road,Franklin    ,Malone         ,65,49,22,2.2,19.8,3,Sand and Gravel,04/16/1977,06/23/2017,08/30/2020,11/04/2019,44.829349999999998,-74.26352,GRAS,82000,No,08/31/2017 12:00:00 AM,UC  ,
51060,"Poirier, Chad",Lavalley Road Sand Mine,A,on the north-side of Lavalley Road and at the western-end of Crescent Lane,Clinton     ,Mooers         ,130.7,2,2,0,2,1,Sand and Gravel,05/26/2015,05/26/2015,05/25/2020,11/14/2019,44.9557,-73.549199999999999,GRAS,6200,No,11/15/2019 12:00:00 AM,UC  ,
40950,Eric J Dahlberg Construction Inc,Dahlberg Sand & Gravel Mine,P,Robinson Road,Schoharie   ,Conesville     ,32.4,28.88,7.74,0,7.74,2,Sand and Gravel,,,,12/11/2019,42.385556000000001,-74.386111,GRAS,54475.82,No,09/12/2018 12:00:00 AM,UC  ,
50266,Hamilton County Highway Dept,Wilson Pit,R, ,Hamilton    ,Wells          ,0,0,6,6,0,1,Sand and Gravel,,,04/30/1987,,43.888260000000002,-74.305800000000005,GRAS,0,No,03/25/2003 12:00:00 AM,UCR ,
60207,"Rodman, Town of",,R,"Box 523, Rodman, NY, 13682 0052",Jefferson   ,Rodman         ,0,0,1,1,0,1,Sand and Gravel,,,05/31/1982,,43.824469999999998,-75.897440000000003,AGRI,0,No,03/28/2003 12:00:00 AM,UCR ,
61077,"Randall, Ralph N & Constance M",Benson Road Pit,R,"200 feet west of Benson Road, 2,700 feet north of the Russell Turnpike.",St. Lawrence ,Parishville    ,34.5,9.5,4.9,4.9,0,1,Sand and Gravel,11/29/2007,08/18/2014,08/01/2019,10/21/2014,44.597859999999997,-74.951409999999996,GRAS,0,No,11/17/2014 12:00:00 AM,UCR ,
91060,AgriAmerica LLC,Stebbins Road Mine,A,Access road proceeds south from intersection of Stebbins Road and Rt. 20.,Chautauqua  ,Sheridan       ,109,19.3,9.7,0,9.7,2,Sand and Gravel,05/31/2017,05/31/2017,05/30/2022,03/23/2020,42.505521000000002,-79.190033,AGRI,54983,No,05/31/2017 12:00:00 AM,UC  ,
80328,Livingston County Highway Dept,Davis Pit,R,"6207 Main Street, Conesus, NY, 14435",Livingston  ,Conesus        ,172,8,8,8,0,1,Sand and Gravel,,08/16/1995,08/16/2000,12/21/2000,42.719760000000001,-77.69632,GRAS,0,No,04/01/2003 12:00:00 AM,UCR ,
50928,"Hosley, M  J",M. J. Hosley Pit #1,A,on the east -side of SR 30 and Long Lake & south of Vill. of Long Lake,Hamilton    ,Long Lake      ,16,4.4,4.4,0,4.4,1,Sand and Gravel,10/02/2001,10/01/2014,09/30/2019,12/05/2019,43.942639999999997,-74.455910000000003,GRAS,16000,No,09/23/2014 12:00:00 AM,UC  ,
91071,Granger Development Inc,Granger Residence and Recreation Pond,X,2626 Staley Rd.,Erie        ,Grand Island   ,62.34,1.9,,0,0,1,Clay           ,,,,,43.003933000000004,-78.988567000000003,LAKE,0,No,06/27/2019 12:00:00 AM,UC  ,
60041,Hanson Aggregates New York LLC,Oriskany Falls Quarry,A,Route 12b Oriskany Falls,Oneida      ,Part           ,1475,341.8,271.8,14.3,257.5,5,Limestone      ,07/15/1977,03/12/2019,03/11/2024,08/28/2018,42.950218,-75.456451000000001,GRAS,2400000,No,12/01/2016 12:00:00 AM,C   ,
60598,Herkimer Diamond Mines Inc,Quartz Diamond Mine,A,"West side of Route 28, 1 mile south of Middleville.",Herkimer    ,Newport        ,260,20,5,0,5,1,Dolostone      ,08/22/1988,11/20/2013,11/19/2018,08/16/2018,43.130896,-74.974605999999994,GRAS,25000,No,12/29/2011 12:00:00 AM,C   ,
70635,NYS DEC  Region 7 - Division of Operations,Skaneateles Boat Launch Site,R,NYS Route 41,Onondaga    ,Skaneateles    ,0,1,1,1,0,1,Shale          ,,,,05/21/1991,42.910640000000001,-76.421949999999995,R/C,0,No,10/05/2004 12:00:00 AM,CR  ,
10023,"Cardo, Charles & Son Inc",,R,"Box 477 Lamb Ave, Quogue, NY, 11959",Suffolk     ,Southampton    ,6,2,2,2,0,1,Sand and Gravel,,02/05/1993,02/05/1998,,40.826700000000002,-72.626739999999998,R/C,5000,No,03/02/2017 12:00:00 AM,UCR ,
90648,Walck Bros Agricultural Services Inc,Ryan Road Pit,N,"2932 Brent Drive, Sanborn, NY, 14132",Niagara     ,Hartland       ,15,5,0,0,0,1,Clay           ,,,,,43.273960000000002,-78.590549999999993,WETL,0,No,01/27/2004 12:00:00 AM,UC  ,
90267,"Poland, Town of - DPW",Hallquist Pit,N,North Side of Wheelock Road;  1100' West of Rt. 394 Intersection.,Chautauqua  ,Poland         ,1,1,0,0,0,1,Sand and Gravel,,,,04/11/2001,42.148859999999999,-79.110870000000006,,0,No,02/04/2004 12:00:00 AM,UC  ,
40344,O & G Industries Inc,Boston Corners Pit,A,"112 Wall Street, Torrington, Ct, 06790 0000",Columbia    ,Ancram         ,51,26.1,26.1,0,26.1,4,Sand and Gravel,11/07/1988,11/20/2017,11/19/2022,03/09/2020,42.052489999999999,-73.537869999999998,AGRI,185858,No,03/21/2003 12:00:00 AM,UC  ,
80584,Austin Construction LLC,McCarthy Gravel Pit,A,McCarthy Road,Steuben     ,Erwin          ,273,27.3,27.3,3,24.3,4,Sand and Gravel,07/18/1990,07/18/2016,07/17/2021,05/21/2019,42.109079999999999,-77.196110000000004,GRAS,138443,No,09/16/2008 12:00:00 AM,UC  ,
50527,"White Creek, Town of",Tabor Pit,T,"P.O.Box 205, Cambridge, NY, 12816 0020",Washington  ,Cambridge      ,132,3,3,0,3,1,Sand and Gravel,07/22/1988,07/22/1988,07/22/1991,,42.994579999999999,-73.398560000000003,GRAS,0,No,03/25/2003 12:00:00 AM,UC  ,
90603,"Warsaw, Town of",Wick Gravel Pit,R,East Side Of Buck Road;  2100' North Of Wilder Road Intersection.,Wyoming     ,Warsaw         ,383,8,8,8,0,1,Clay           ,10/19/1994,10/19/1994,10/19/1999,,42.71266,-78.156729999999996,AGRI,0,No,01/26/2004 12:00:00 AM,UCR ,
60501,"NYS Office of Parks, Recreation and Historic Preservation",Wellsley Island State Park Gravel Pit,R,"P. O. Box 247, Alexandria Bay, NY, 13607 0024",Jefferson   ,Orleans        ,2700,7,2,2,0,1,Sand and Gravel,07/25/1986,02/12/2008,02/01/2013,09/20/2007,44.32385,-76.051670000000001,OTH,0,No,11/15/2012 12:00:00 AM,UCR ,
40339,Chemung Contracting Corp,Williams Pit,R,"1209 Upper Broadway Po Box 284, Elmira, NY, 14902 0028",Otsego      ,Milford        ,0,0,0,0,0,1,Sand and Gravel,,,06/21/1987,,,,GRAS,0,No,04/25/2007 12:00:00 AM,UCR ,
30182,Swamp River Sand & Gravel Inc,,R,"Box 366, Pawling, NY, 12564 0036",Dutchess    ,Pawling        ,0,0,17,17,0,1,Sand and Gravel,,,01/01/1901,,41.589289999999998,-73.598370000000003,WETL,7500,No,01/11/2017 12:00:00 AM,UCR ,
90748,"Raby, Harry",Raby Pond,X,South Side Of Swann Road;  600' East Of Williams Road Intersection.,Niagara     ,Lewiston       ,1,1,1,1,0,1,Clay           ,,08/10/2001,12/04/2003,09/09/2005,43.194760000000002,-78.941159999999996,LAKE,0,No,01/13/2005 12:00:00 AM,UC  ,
80455,Vector Construction,,R,"230 Bridge Street, East Syracuse, NY, 13057 0289",Wayne       ,Savannah       ,0,0,15,15,0,1,Sand and Gravel,,,05/27/1989,,43.059069999999998,-76.753380000000007,,0,No,05/01/2007 12:00:00 AM,UCR ,
80650,Dendis Sand & Gravel Inc,Palone Gravel Mine,A,"Hayes Rd, Geneva, NY",Ontario     ,Phelps         ,14.3,14.3,14.3,9.2,5.1,2,Sand and Gravel,02/15/1995,03/02/2020,03/01/2025,02/24/2020,42.942,-76.991500000000002,LAKE,30049,No,07/29/2009 12:00:00 AM,UC  ,
30407,"Lahm, George",George Lahm,R,"Box 210 Rd1, Callicoon, NY, 12723",Sullivan    ,Delaware       ,0,0,1,1,0,1,Sand and Gravel,,,,,41.759039999999999,-75.026070000000004,,0,No,02/10/2017 12:00:00 AM,UCR ,
80683,Wayne County Highway Dept,Botcher's Gravel Mine,R,"7227 Rte 31, Lyons, NY, 14489",Wayne       ,Arcadia        ,72,35,35,35,0,1,Sand and Gravel,10/05/1994,05/01/2001,05/01/2002,06/03/2002,43.059460000000001,-77.106899999999996,AGRI,0,No,04/01/2003 12:00:00 AM,UCR ,
70557,Porter's Concrete Service Inc,"Blanket St. (Pit #3),",R,Blanket Street,Tioga       ,Barton         ,21,18,12,12,0,1,Sand and Gravel,06/14/1989,03/09/1998,02/28/2003,10/18/2005,42.043469999999999,-76.453159999999997,GRAS,24000,No,10/19/2005 12:00:00 AM,UCR ,
30668,Ridgecrest Farms Inc,Ridgecrest Farms Mine,A,"N side of Creek Road ~ 1,450 feet N-NE of intersection with Sinpatch Road",Dutchess    ,Amenia         ,143,57.8,5.8,0,5.8,2,Sand and Gravel,01/29/2013,09/12/2018,09/11/2023,05/16/2018,41.783990000000003,-73.547650000000004,GRAS,45985.29,No,10/16/2019 12:00:00 AM,UC  ,
51000,"Beeman, Roswell",Emery Road Pit,A,on the east-side of Emery Road & south of SR 11,Clinton     ,Mooers         ,72,48.9,17.6,2.6,15,3,Sand and Gravel,10/30/2007,02/13/2019,02/12/2024,09/18/2019,44.957568999999999,-73.626337000000007,GRAS,75000,No,10/02/2017 12:00:00 AM,UC  ,
90070,Suburban Excavators Inc,Spaulding Road Site,N,East Side Of Spaulding Road;  800' North Of Concord Road Intersection.,Erie        ,Concord        ,5,5,0,0,0,1,Sand and Gravel,,,,08/28/2001,42.537559999999999,-78.730249999999998,,0,No,01/13/2004 12:00:00 AM,UC  ,
60339,"Russia, Town of",Worden,T,"P. O. Box 2, Poland, NY, 13431 0000",Herkimer    ,Russia         ,0,2,2,2,0,1,Sand and Gravel,,,09/30/1986,,43.23077,-75.067999999999998,GRAS,0,No,03/28/2003 12:00:00 AM,UC  ,
40089,Miner Excavating Co,Garrigan Road Pit,R,"25 Route 28a, Valatie, NY, 12184 0961",Columbia    ,Kinderhook     ,6,6,6,6,0,1,Sand and Gravel,06/14/1989,03/15/2003,03/15/2005,05/23/2003,42.413179999999997,-73.660160000000005,GRAS,0,No,06/05/2003 12:00:00 AM,UCR ,
60694,"Harmer, Harry",Quarry Road Pit,R,"297 County Route 17, Russell, NY, 13684 0980",St. Lawrence ,Gouverneur     ,300,6,6,6,0,1,Sand and Gravel,11/15/1989,11/10/1992,11/30/1997,,44.313960000000002,-75.492559999999997,GRAS,12000,No,03/28/2003 12:00:00 AM,UCR ,
50534,G Everleth Construction Co Inc,,R,"124 Sunrise Drive, Plattsburgh, NY, 12901",Clinton     ,Mooers         ,3,3,3,3,0,1,Sand and Gravel,09/19/1988,10/14/1998,10/15/2001,09/25/2003,45.001139999999999,-73.534139999999994,GRAS,0,No,06/21/2004 12:00:00 AM,UCR ,
61023,"Webb, Town of",Trail #1 Pit,R,2.3 miles north of intersection of North St & NYS Rt 28,Herkimer    ,Webb           ,9000,2.5,2.5,2.5,0,1,Sand and Gravel,05/25/2004,05/25/2004,06/01/2009,09/12/2012,43.741439999999997,-74.977890000000002,GRAS,0,No,07/30/2010 12:00:00 AM,UCR ,
40323,Ancram Sand & Gravel,,R,"Pats Rd, Ancramdale, NY, 12503",Columbia    ,Ancram         ,0,1,1,1,0,1,Sand and Gravel,,,01/25/1987,,,,AGRI,5000,No,03/21/2003 12:00:00 AM,UCR ,
40808,"Quarry Waters, Inc.",Quarry Waters Mine,N,"24 Aviation Road, AlbaNY, NY, 12205",Greene      ,New Baltimore  ,48,31,23,0,23,4,Limestone      ,,,,05/06/2015,42.456299999999999,-73.819900000000004,LAKE,0,No,05/05/2015 12:00:00 AM,C   ,
90575,Ferington Excavating & Development,Fox Pit,N,North Side of Rt. 98;  1200' East of Galen Hill Road Intersection.,Cattaraugus ,Freedom        ,40,5,0,0,0,1,Sand and Gravel,,,,,42.490760000000002,-78.353340000000003,,0,No,02/05/2004 12:00:00 AM,UC  ,
40470,"Taylor, David",Taylor Gravel Mine,R,"New Kingston Rd., Margaretville, NY, 12455",Delaware    ,Middletown     ,350,6,6,6,0,1,Sand and Gravel,05/30/1988,12/31/2001,12/31/2002,03/19/2004,42.207189999999997,-74.675600000000003,OPEN,0,No,03/22/2004 12:00:00 AM,UCR ,
60351,"Dillenback, John",Dillenback Quarry,R,"26801 NYs Route 180, Dexter, NY, 13634 0980",Jefferson   ,Brownville     ,60,20,3,3,0,1,Limestone      ,01/01/1975,02/18/2015,03/01/2020,09/10/2015,44.057960000000001,-76.023849999999996,OPEN,0,No,09/10/2015 12:00:00 AM,CR  ,
30558,Vieira Mining Corporation,Dover Mine,A,"West side Rt 22, T. Dover, near Wingdale",Dutchess    ,Dover          ,11.65,6.8,6.8,3.8,3,1,Sand and Gravel,08/01/1995,02/13/2018,02/12/2020,02/25/2020,41.643799999999999,-73.564670000000007,,45782,No,09/29/2014 12:00:00 AM,UC  ,
70741,F S Lopke Contracting Inc,Wheeler - Day,T,Stanton Hill Road,Tioga       ,Nichols        ,80,70,0,0,0,1,Sand and Gravel,04/08/1996,,,,42.073099999999997,-76.308800000000005,GRAS,0,No,07/21/2005 12:00:00 AM,UC  ,
91073,"Czajkowski, Mark",Crawford Creek Site,N,"7989 Crawford Creek Road, Caneadea, NY",Allegany    ,Belfast        ,32,32,0,0,0,1,Sand and Gravel,,,,10/03/2019,42.329645999999997,-78.191629000000006,,0,No,09/20/2019 12:00:00 AM,UC  ,
70417,Chenango Valley Central School District,Chenango Valley High School,R,Route 7 at int. with Route 12-A,Broome      ,Fenton         ,25,2,2,2,0,1,Glacial Till   ,02/07/1986,08/16/1986,08/15/1987,02/08/1991,42.16198,-75.868840000000006,IND,0,No,04/20/2005 12:00:00 AM,UCR ,
70949,Burrell's Excavating Inc,Leilani's Way Topsoil Mine,R,"approx 1000' west of intersection w/ CR 32, north of Leilani Way",Chenango    ,Norwich        ,20,9,5.75,5.75,0,1,Topsoil        ,06/08/2011,06/08/2016,06/07/2021,06/08/2017,42.5441,-75.514600000000002,GRAS,0,No,06/14/2017 12:00:00 AM,UCR ,
70901,P.A.K Construction Inc,Knowles Mine,A,"County Route 36 enter under power lines, S. of Complainant hse. #667.",Chenango    ,Guilford       ,73,5,2,0,2,1,Shale          ,06/03/2011,06/03/2016,06/21/2021,01/15/2019,42.440080000000002,-75.486720000000005,AGRI,10500,No,06/03/2011 12:00:00 AM,C   ,
60220,Champion Materials Inc,Carthage Site,A,"West of NYS Rte 26, 450 feet South of Putnam Hill Road",Jefferson   ,Champion       ,213.4,191.6,175.1,90,85.1,5,Limestone      ,09/18/1975,09/24/2019,09/23/2024,06/06/2019,43.988070999999998,-75.655957999999998,GRAS,475230,No,07/26/2019 12:00:00 AM,C   ,
80265,R C Billings Inc,,R,"320 E Washington Street, Bath, NY, 14810 0132",Steuben     ,Prattsburg     ,0,0,4,4,0,1,Sand and Gravel,,,04/04/1980,,42.603070000000002,-77.3018,,0,No,05/03/2007 12:00:00 AM,UCR ,
80554,"Howard, Town of",Helm Pit,A,"3725 Mill Rd, Avoca, NY, 14809 0980",Steuben     ,Bath           ,52,14.5,14.5,0,14.5,3,Sand and Gravel,03/05/2002,03/29/2019,03/28/2024,06/13/2019,42.342700000000001,-77.441100000000006,GRAS,0,No,12/31/2010 12:00:00 AM,UC  ,
40672,"Boss, Robert E",Monticello Road Pit,R,"Rd3,Box 204, Richfield Springs, NY, 13439",Otsego      ,Richfield      ,0,5,5,5,0,1,Sand and Gravel,01/05/1995,01/05/1995,01/05/2000,,42.855269999999997,-75.009299999999996,GRAS,10000,No,03/21/2003 12:00:00 AM,UCR ,
90775,Fitzgerald,Lovers Lane,N,West Side Of Lover's Lane Road;  Between Buehlow Hill And Pepperdine Roads.,Cattaraugus ,New Albion     ,3,0,3,0,3,1,Sand and Gravel,,,,04/24/2001,42.312660000000001,-78.862960000000001,,0,No,01/12/2004 12:00:00 AM,UC  ,
70961,Hammonds Corners LLC,Hammonds Corners pit,X,Middle Rd & State Route 104,Oswego      ,Scriba         ,83,33,33,0,33,5,Topsoil        ,07/29/2009,,,10/07/2009,43.476500000000001,-76.386499999999998,R/C,0,No,09/02/2009 12:00:00 AM,UC  ,
